{"type": "FeatureCollection", "features": [{"geometry": {"type": "Point", "coordinates": [1.8162114264366, 40.642949464754395]}, "type": "Feature", "id": "1023180212", "properties": {"cats": ["Centrals de reserves d'hotels", "Allotjament"], "created": "2001-01-23T00:00:00Z", "id": "1023180212", "name": "Central de Reserves Euro Relais"}}, {"geometry": {"type": "Point", "coordinates": [2.208816, 41.400649611111106]}, "type": "Feature", "id": "1026133729", "properties": {"neighborhood": "Poble Nou", "name": "Hotel Eurohotel Diagonal Port", "district": "Sant Mart\u00ed", "created": "2001-01-26T00:00:00Z", "cats": ["4 estrelles", "Hotels", "Allotjament"], "address": "Lope de Vega 4", "postalCode": "08005", "id": "1026133729"}}, {"geometry": {"type": "Point", "coordinates": [2.166953, 41.37598416666667]}, "type": "Feature", "id": "1026134324", "properties": {"neighborhood": "el Raval", "name": "Hotel Garb\u00ed Mil\u00b7lenni", "district": "Ciutat Vella", "created": "2001-01-26T00:00:00Z", "cats": ["4 estrelles", "Hotels", "Allotjament"], "address": "Rda Sant Pau 14", "postalCode": "08001", "id": "1026134324"}}, {"geometry": {"type": "Point", "coordinates": [2.151834694444444, 41.383665702777776]}, "type": "Feature", "id": "1044121532", "properties": {"neighborhood": "la Nova Esquerra de l'Eixample", "name": "Hotel Exe AB Viladomat", "district": "Eixample", "created": "2001-02-13T00:00:00Z", "cats": ["3 estrelles", "Hotels", "Allotjament"], "address": "Viladomat 197", "postalCode": "08015", "id": "1044121532"}}, {"geometry": {"type": "Point", "coordinates": [2.2140264444444444, 41.40407800833333]}, "type": "Feature", "id": "1051101151", "properties": {"neighborhood": "Poble Nou", "name": "Hotel Front Mar\u00edtim Barcelona", "district": "Sant Mart\u00ed", "created": "2001-02-20T00:00:00Z", "cats": ["4 estrelles", "Hotels", "Allotjament"], "address": "Pg Garcia F\u00e0ria 69", "postalCode": "08019", "id": "1051101151"}}, {"geometry": {"type": "Point", "coordinates": [2.1682956944444443, 41.375158033333335]}, "type": "Feature", "id": "1068120923", "properties": {"neighborhood": "el Raval", "name": "Hotel Barcelona Universal", "district": "Ciutat Vella", "created": "2001-03-09T00:00:00Z", "cats": ["4 estrelles", "Hotels", "Allotjament"], "address": "Av Paral.lel 76*80 bxs", "postalCode": "08001", "id": "1068120923"}}, {"geometry": {"type": "Point", "coordinates": [2.162375083333333, 41.39869105555555]}, "type": "Feature", "id": "1080172434", "properties": {"neighborhood": "la Dreta de l'Eixample", "name": "Hotel Catalonia La Pedrera", "district": "Eixample", "created": "2001-03-21T00:00:00Z", "cats": ["4 estrelles", "Hotels", "Allotjament"], "address": "C\u00f2rsega 368", "postalCode": "08037", "id": "1080172434"}}, {"geometry": {"type": "Point", "coordinates": [2.1717395277777776, 41.38873939444444]}, "type": "Feature", "id": "1095103814", "properties": {"neighborhood": "la Dreta de l'Eixample", "name": "Hotel Bcn Urban Gran Ducat", "district": "Eixample", "created": "2001-04-05T00:00:00Z", "cats": ["3 estrelles", "Hotels", "Allotjament"], "address": "Rda Sant Pere 15", "postalCode": "08010", "id": "1095103814"}}, {"geometry": {"type": "Point", "coordinates": [2.169497388888889, 41.41013589166666]}, "type": "Feature", "id": "1138131213", "properties": {"neighborhood": "el Baix Guinard\u00f3", "name": "Hotel Confortel Bel Art", "district": "Horta-Guinard\u00f3", "created": "2001-05-18T00:00:00Z", "cats": ["4 estrelles", "Hotels", "Allotjament"], "address": "Lepant 406", "postalCode": "08025", "id": "1138131213"}}, {"geometry": {"type": "Point", "coordinates": [1.8162114264366, 40.642949464754395]}, "type": "Feature", "id": "1165141310", "properties": {"name": "Hotel Serhs Campus", "created": "2001-06-14T00:00:00Z", "cats": ["4 estrelles", "Hotels", "Allotjament"], "address": "Campus UAB s/n", "postalCode": "08193", "id": "1165141310"}}, {"geometry": {"type": "Point", "coordinates": [2.175293361111111, 41.396446902777775]}, "type": "Feature", "id": "1166132202", "properties": {"neighborhood": "la Dreta de l'Eixample", "name": "Hostal Central Barcelona", "district": "Eixample", "created": "2001-06-15T00:00:00Z", "cats": ["1 estrella", "Pensions", "Allotjament"], "address": "Diputaci\u00f3 346", "postalCode": "08013", "id": "1166132202"}}, {"geometry": {"type": "Point", "coordinates": [2.177862444444444, 41.41398339444444]}, "type": "Feature", "id": "12124527", "properties": {"neighborhood": "el Guinard\u00f3", "name": "Hotel Amrey Sant Pau", "district": "Horta-Guinard\u00f3", "created": "2000-01-12T00:00:00Z", "cats": ["2 estrelles", "Hotels", "Allotjament"], "address": "Sant Antoni Maria Claret 173", "postalCode": "08041", "id": "12124527"}}, {"geometry": {"type": "Point", "coordinates": [2.1453058888888887, 41.381158775]}, "type": "Feature", "id": "1261151147", "properties": {"neighborhood": "la Nova Esquerra de l'Eixample", "name": "Hotel H10 Itaca", "district": "Eixample", "created": "2001-09-18T00:00:00Z", "cats": ["4 estrelles", "Hotels", "Allotjament"], "address": "Av Roma 22", "postalCode": "08015", "id": "1261151147"}}, {"geometry": {"type": "Point", "coordinates": [2.2100581111111115, 41.40156585277778]}, "type": "Feature", "id": "1263180930", "properties": {"neighborhood": "Poble Nou", "name": "Hotel Hesperia del Mar", "district": "Sant Mart\u00ed", "created": "2001-09-20T00:00:00Z", "cats": ["4 estrelles", "Hotels", "Allotjament"], "address": "C Espronceda 6 bxs", "postalCode": "08005", "id": "1263180930"}}, {"geometry": {"type": "Point", "coordinates": [2.180995861111111, 41.43302631111111]}, "type": "Feature", "id": "1269122431", "properties": {"neighborhood": "Porta", "name": "Hotel Ibis Barcelona Meridiana", "district": "Nou Barris", "created": "2001-09-26T00:00:00Z", "cats": ["2 estrelles", "Hotels", "Allotjament"], "address": "Pg Andreu Nin 9", "postalCode": "08016", "id": "1269122431"}}, {"geometry": {"type": "Point", "coordinates": [1.8162114264366, 40.642949464754395]}, "type": "Feature", "id": "1289184057", "properties": {"neighborhood": "Cam\u00ed Ral", "name": "Hotel Ibis", "district": "Districte 5", "created": "2001-10-16T00:00:00Z", "cats": ["2 estrelles", "Hotels", "Allotjament"], "address": "Pg. Ferrocarril 342", "postalCode": "08860", "id": "1289184057"}}, {"geometry": {"type": "Point", "coordinates": [2.1388547222222223, 41.40466611111111]}, "type": "Feature", "id": "139120246", "properties": {"neighborhood": "Sant Gervasi - la Bonanova", "name": "Hotel Sant Gervasi Barcelona", "district": "Sarri\u00e0-Sant Gervasi", "created": "2000-05-18T00:00:00Z", "cats": ["3 estrelles", "Hotels", "Allotjament"], "address": "Sant Gervasi de Cassoles 26", "postalCode": "08022", "id": "139120246"}}, {"geometry": {"type": "Point", "coordinates": [2.1511278333333332, 41.407137552777776]}, "type": "Feature", "id": "146175914", "properties": {"neighborhood": "la Vila de Gr\u00e0cia", "name": "Resid\u00e8ncia Universit\u00e0ria Lesseps", "district": "Gr\u00e0cia", "created": "2000-05-25T00:00:00Z", "cats": ["Resid\u00e8ncies d'estudiants", "Allotjament"], "address": "Pl Lesseps 12", "postalCode": "08023", "id": "146175914"}}, {"geometry": {"type": "Point", "coordinates": [2.186089138888889, 41.391532927777774]}, "type": "Feature", "id": "146180329", "properties": {"neighborhood": "el Parc i la Llacuna del Poblenou", "name": "Resid\u00e8ncia Universit\u00e0ria La Ciutadella", "district": "Sant Mart\u00ed", "created": "2000-05-25T00:00:00Z", "cats": ["Resid\u00e8ncies d'estudiants", "Allotjament"], "address": "Pg Pujades 33*37", "postalCode": "08018", "id": "146180329"}}, {"geometry": {"type": "Point", "coordinates": [2.1622030555555556, 41.389496405555555]}, "type": "Feature", "id": "166180029", "properties": {"neighborhood": "l'Antiga Esquerra de l'Eixample", "name": "Hostal Eden", "district": "Eixample", "created": "2000-06-14T00:00:00Z", "cats": ["2 estrelles", "Pensions", "Allotjament"], "address": "C Balmes 55", "postalCode": "08007", "id": "166180029"}}, {"geometry": {"type": "Point", "coordinates": [2.168142, 41.38473286666667]}, "type": "Feature", "id": "167082307", "properties": {"neighborhood": "el Raval", "name": "Hosteria Grau", "district": "Ciutat Vella", "created": "2000-06-15T00:00:00Z", "cats": ["2 estrelles", "Pensions", "Allotjament"], "address": "Ramelleres 27", "postalCode": "08001", "id": "167082307"}}, {"geometry": {"type": "Point", "coordinates": [2.212195416666667, 41.40539333611111]}, "type": "Feature", "id": "182121024", "properties": {"neighborhood": "Poble Nou", "name": "Hotel Husa Barcelona Mar", "district": "Sant Mart\u00ed", "created": "2000-06-30T00:00:00Z", "cats": ["4 estrelles", "Hotels", "Allotjament"], "address": "C Proven\u00e7als 10", "postalCode": "08019", "id": "182121024"}}, {"geometry": {"type": "Point", "coordinates": [2.1823455833333334, 41.371059611111114]}, "type": "Feature", "id": "2042134715", "properties": {"neighborhood": "el Raval", "name": "Eurostars Grand Marina Hotel *WTC Barcelona", "district": "Ciutat Vella", "created": "2002-02-11T00:00:00Z", "cats": ["5 estrelles", "Hotels", "Allotjament"], "address": "Moll Barcelona 1", "postalCode": "08039", "id": "2042134715"}}, {"geometry": {"type": "Point", "coordinates": [2.1738729166666664, 41.38337172222222]}, "type": "Feature", "id": "2044131246", "properties": {"neighborhood": "el Barri G\u00f2tic", "name": "Hotel H10 Rac\u00f3 del Pi", "district": "Ciutat Vella", "created": "2002-02-13T00:00:00Z", "cats": ["3 estrelles", "Hotels", "Allotjament"], "address": "Pi 7", "postalCode": "08002", "id": "2044131246"}}, {"geometry": {"type": "Point", "coordinates": [2.16110675, 41.39601889722222]}, "type": "Feature", "id": "2064132731", "properties": {"neighborhood": "la Dreta de l'Eixample", "name": "Hotel Actual", "district": "Eixample", "created": "2002-03-05T00:00:00Z", "cats": ["3 estrelles", "Hotels", "Allotjament"], "address": "Rossell\u00f3 238", "postalCode": "08008", "id": "2064132731"}}, {"geometry": {"type": "Point", "coordinates": [2.165565722222222, 41.38972765277778]}, "type": "Feature", "id": "2087103456", "properties": {"neighborhood": "la Dreta de l'Eixample", "name": "Hotel Continental Palacete", "district": "Eixample", "created": "2002-03-28T00:00:00Z", "cats": ["3 estrelles", "Hotels", "Allotjament"], "address": "Rbla Catalunya 30", "postalCode": "08007", "id": "2087103456"}}, {"geometry": {"type": "Point", "coordinates": [1.8162114264366, 40.642949464754395]}, "type": "Feature", "id": "2113134637", "properties": {"neighborhood": "Residencial St. Joan", "name": "Novotel Barcelona Sant Joan Desp\u00ed", "district": "00", "created": "2002-04-23T00:00:00Z", "cats": ["4 estrelles", "Hotels", "Allotjament"], "address": "Carrer de la TV3 2", "postalCode": "08970", "id": "2113134637"}}, {"geometry": {"type": "Point", "coordinates": [1.8162114264366, 40.642949464754395]}, "type": "Feature", "id": "2113141536", "properties": {"neighborhood": "Barri 99", "name": "Hotel Ibis", "district": "Districte 99", "created": "2002-04-23T00:00:00Z", "cats": ["2 estrelles", "Hotels", "Allotjament"], "address": "Albert Einstein 53*55", "postalCode": "08940", "id": "2113141536"}}, {"geometry": {"type": "Point", "coordinates": [2.172905472222222, 41.384693855555554]}, "type": "Feature", "id": "262124203", "properties": {"neighborhood": "el Barri G\u00f2tic", "name": "Hotel NH Barcelona Centro", "district": "Ciutat Vella", "created": "2000-09-18T00:00:00Z", "cats": ["3 estrelles", "Hotels", "Allotjament"], "address": "C Duc 15", "postalCode": "08002", "id": "262124203"}}, {"geometry": {"type": "Point", "coordinates": [2.140019166666667, 41.38256868055556]}, "type": "Feature", "id": "273135303", "properties": {"neighborhood": "Sants", "name": "Abba Sants Hotel", "district": "Sants-Montju\u00efc", "created": "2000-09-29T00:00:00Z", "cats": ["4 estrelles", "Hotels", "Allotjament"], "address": "Num\u00e0ncia 32", "postalCode": "08029", "id": "273135303"}}, {"geometry": {"type": "Point", "coordinates": [2.169120694444444, 41.405717269444445]}, "type": "Feature", "id": "320124701", "properties": {"neighborhood": "el Camp d'en Grassot i Gr\u00e0cia Nova", "name": "Hostal Lazza", "district": "Gr\u00e0cia", "created": "2000-11-15T00:00:00Z", "cats": ["2 estrelles", "Pensions", "Allotjament"], "address": "Ind\u00fastria 81", "postalCode": "08025", "id": "320124701"}}, {"geometry": {"type": "Point", "coordinates": [2.1502609444444443, 41.39510270555556]}, "type": "Feature", "id": "325114254", "properties": {"neighborhood": "Sant Gervasi - Galvany", "name": "Atrapalo.com", "district": "Sarri\u00e0-Sant Gervasi", "created": "2000-11-20T00:00:00Z", "cats": ["Centrals de reserves d'hotels", "Allotjament"], "address": "C Aribau 185 1r", "postalCode": "08021", "id": "325114254"}}, {"geometry": {"type": "Point", "coordinates": [2.1598913055555555, 41.39708246111111]}, "type": "Feature", "id": "328134229", "properties": {"neighborhood": "la Vila de Gr\u00e0cia", "name": "Hoteles Catalonia", "district": "Gr\u00e0cia", "created": "2000-11-23T00:00:00Z", "cats": ["Cadenes i empreses hoteleres", "Allotjament"], "address": "C\u00f2rsega 323*325", "postalCode": "08037", "id": "328134229"}}, {"geometry": {"type": "Point", "coordinates": [2.111628027777778, 41.39354756388889]}, "type": "Feature", "id": "75145812", "properties": {"neighborhood": "Pedralbes", "name": "Hotel Sansi", "district": "Les Corts", "created": "2000-03-15T00:00:00Z", "cats": ["4 estrelles", "Hotels", "Allotjament"], "address": "Av Pearson 1*3", "postalCode": "08034", "id": "75145812"}}, {"geometry": {"type": "Point", "coordinates": [2.164036361111111, 41.381242066666665]}, "type": "Feature", "id": "75990012326", "properties": {"neighborhood": "el Raval", "name": "Hotel Ronda", "district": "Ciutat Vella", "created": "1996-09-17T00:00:00Z", "cats": ["3 estrelles", "Hotels", "Allotjament", "Hotels apartaments"], "address": "C Sant Erasme 19", "postalCode": "08001", "id": "75990012326"}}, {"geometry": {"type": "Point", "coordinates": [2.172583111111111, 41.423853152777774]}, "type": "Feature", "id": "75990014920", "properties": {"neighborhood": "el Guinard\u00f3", "name": "Aparthotel Am\u00edlcar", "district": "Horta-Guinard\u00f3", "created": "1996-09-17T00:00:00Z", "cats": ["Apartaments", "Allotjament"], "address": "C Am\u00edlcar 118", "postalCode": "08032", "id": "75990014920"}}, {"geometry": {"type": "Point", "coordinates": [2.1631125555555553, 41.390631444444445]}, "type": "Feature", "id": "75990016384", "properties": {"neighborhood": "la Dreta de l'Eixample", "name": "Hotel T\u00e0ber", "district": "Eixample", "created": "1996-09-17T00:00:00Z", "cats": ["3 estrelles", "Hotels", "Allotjament"], "address": "C Arag\u00f3 256", "postalCode": "08007", "id": "75990016384"}}, {"geometry": {"type": "Point", "coordinates": [2.1660168333333334, 41.39322316111111]}, "type": "Feature", "id": "75990016450", "properties": {"neighborhood": "la Dreta de l'Eixample", "name": "Hotel Universal", "district": "Eixample", "created": "1996-09-17T00:00:00Z", "cats": ["1 estrella", "Hotels", "Allotjament"], "address": "C Arag\u00f3 281 2n 1a", "postalCode": "08009", "id": "75990016450"}}, {"geometry": {"type": "Point", "coordinates": [2.165730638888889, 41.39260365]}, "type": "Feature", "id": "75990016464", "properties": {"neighborhood": "la Dreta de l'Eixample", "name": "Col.legi Major Universitari Lestonnac", "district": "Eixample", "created": "1996-09-17T00:00:00Z", "cats": ["Col.legis majors", "Allotjament"], "address": "C Arag\u00f3 284", "postalCode": "08007", "id": "75990016464"}}, {"geometry": {"type": "Point", "coordinates": [2.1701071666666665, 41.39630166388889]}, "type": "Feature", "id": "75990016573", "properties": {"neighborhood": "la Dreta de l'Eixample", "name": "Hotel EuroPark", "district": "Eixample", "created": "1996-09-17T00:00:00Z", "cats": ["3 estrelles", "Hotels", "Allotjament"], "address": "C Arag\u00f3 325", "postalCode": "08009", "id": "75990016573"}}, {"geometry": {"type": "Point", "coordinates": [2.1494795555555557, 41.39568803611111]}, "type": "Feature", "id": "75990018174", "properties": {"neighborhood": "Sant Gervasi - Galvany", "name": "Hotel Condado", "district": "Sarri\u00e0-Sant Gervasi", "created": "1996-09-17T00:00:00Z", "cats": ["3 estrelles", "Hotels", "Allotjament"], "address": "Aribau 201", "postalCode": "08021", "id": "75990018174"}}, {"geometry": {"type": "Point", "coordinates": [2.1546980833333333, 41.396789130555554]}, "type": "Feature", "id": "75990019433", "properties": {"neighborhood": "Sant Gervasi - Galvany", "name": "Hoteles Hesperia", "district": "Sarri\u00e0-Sant Gervasi", "created": "1996-09-17T00:00:00Z", "cats": ["Cadenes i empreses hoteleres", "Allotjament"], "address": "Via Augusta 13*15 4t", "postalCode": "08006", "id": "75990019433"}}, {"geometry": {"type": "Point", "coordinates": [2.1514044166666664, 41.40006210833333]}, "type": "Feature", "id": "75990019711", "properties": {"neighborhood": "Sant Gervasi - Galvany", "name": "Hotel Via Augusta", "district": "Sarri\u00e0-Sant Gervasi", "created": "1996-09-17T00:00:00Z", "cats": ["2 estrelles", "Hotels", "Allotjament"], "address": "Via Augusta 63", "postalCode": "08006", "id": "75990019711"}}, {"geometry": {"type": "Point", "coordinates": [2.128825583333333, 41.39763868055555]}, "type": "Feature", "id": "75990020227", "properties": {"neighborhood": "les Tres Torres", "name": "Residencia Madre Isabel Larra\u00f1aga", "district": "Sarri\u00e0-Sant Gervasi", "created": "1996-09-17T00:00:00Z", "cats": ["Resid\u00e8ncies d'estudiants", "Allotjament"], "address": "Via Augusta 289", "postalCode": "08017", "id": "75990020227"}}, {"geometry": {"type": "Point", "coordinates": [2.1776854444444442, 41.385682958333334]}, "type": "Feature", "id": "75990020841", "properties": {"neighborhood": "Sant Pere, Santa Caterina i la Ribera", "name": "Residencia e Instituci\u00f3n Javeriana", "district": "Ciutat Vella", "created": "1996-09-17T00:00:00Z", "cats": ["Resid\u00e8ncies d'estudiants", "Allotjament"], "address": "C Avell\u00e0 1", "postalCode": "08003", "id": "75990020841"}}, {"geometry": {"type": "Point", "coordinates": [2.1783469444444443, 41.38048760555556]}, "type": "Feature", "id": "75990021041", "properties": {"neighborhood": "el Barri G\u00f2tic", "name": "Pensi\u00f3 Avi\u00f1\u00f3", "district": "Ciutat Vella", "created": "1996-09-17T00:00:00Z", "cats": ["1 estrella", "Pensions", "Allotjament"], "address": "Aviny\u00f3 0042", "postalCode": "08002", "id": "75990021041"}}, {"geometry": {"type": "Point", "coordinates": [2.1769388333333333, 41.3772259]}, "type": "Feature", "id": "75990024769", "properties": {"neighborhood": "el Barri G\u00f2tic", "name": "Pensi\u00f3 Mar\u00edtima", "district": "Ciutat Vella", "created": "1996-09-17T00:00:00Z", "cats": ["1 estrella", "Pensions", "Allotjament"], "address": "Ptge Banca 2*4", "postalCode": "08002", "id": "75990024769"}}, {"geometry": {"type": "Point", "coordinates": [2.175567194444444, 41.378137011111114]}, "type": "Feature", "id": "75990024885", "properties": {"neighborhood": "el Raval", "name": "Hotel Arc la Rambla", "district": "Ciutat Vella", "created": "1996-09-17T00:00:00Z", "cats": ["3 estrelles", "Hotels", "Allotjament"], "address": "C la Rambla 19", "postalCode": "08002", "id": "75990024885"}}, {"geometry": {"type": "Point", "coordinates": [2.1754164166666663, 41.37841173333334]}, "type": "Feature", "id": "75990024894", "properties": {"neighborhood": "el Raval", "name": "Pensi\u00f3 Picasso", "district": "Ciutat Vella", "created": "1996-09-17T00:00:00Z", "cats": ["1 estrella", "Pensions", "Allotjament"], "address": "C la Rambla 25 pral 1a", "postalCode": "08002", "id": "75990024894"}}, {"geometry": {"type": "Point", "coordinates": [2.176335527777778, 41.37780418611111]}, "type": "Feature", "id": "75990024905", "properties": {"neighborhood": "el Barri G\u00f2tic", "name": "Hotel Apartaments Mur-Mar", "district": "Ciutat Vella", "created": "1996-09-17T00:00:00Z", "cats": ["Apartaments", "Allotjament"], "address": "la Rambla 0014", "postalCode": "08002", "id": "75990024905"}}, {"geometry": {"type": "Point", "coordinates": [2.175411694444444, 41.37950471944445]}, "type": "Feature", "id": "75990024933", "properties": {"neighborhood": "el Barri G\u00f2tic", "name": "Hotel Cuatro Naciones", "district": "Ciutat Vella", "created": "1996-09-17T00:00:00Z", "cats": ["2 estrelles", "Hotels", "Allotjament"], "address": "C la Rambla 40", "postalCode": "08002", "id": "75990024933"}}, {"geometry": {"type": "Point", "coordinates": [2.17265175, 41.382143372222224]}, "type": "Feature", "id": "75990025049", "properties": {"neighborhood": "el Barri G\u00f2tic", "name": "Pensi\u00f3 Mendoza", "district": "Ciutat Vella", "created": "1996-09-17T00:00:00Z", "cats": ["1 estrella", "Pensions", "Allotjament"], "address": "la Rambla 0096", "postalCode": "08002", "id": "75990025049"}}, {"geometry": {"type": "Point", "coordinates": [2.170566194444444, 41.38434323055556]}, "type": "Feature", "id": "75990025108", "properties": {"neighborhood": "el Raval", "name": "Royal Ramblas Hotel", "district": "Ciutat Vella", "created": "1996-09-17T00:00:00Z", "cats": ["4 estrelles", "Hotels", "Allotjament"], "address": "C la Rambla 117", "postalCode": "08002", "id": "75990025108"}}, {"geometry": {"type": "Point", "coordinates": [2.1713749166666667, 41.383947416666665]}, "type": "Feature", "id": "75990025117", "properties": {"neighborhood": "el Barri G\u00f2tic", "name": "Hotel Montecarlo", "district": "Ciutat Vella", "created": "1996-09-17T00:00:00Z", "cats": ["3 estrelles", "Hotels", "Allotjament"], "address": "C la Rambla 124", "postalCode": "08002", "id": "75990025117"}}, {"geometry": {"type": "Point", "coordinates": [2.1702010555555553, 41.38482527777778]}, "type": "Feature", "id": "75990025122", "properties": {"neighborhood": "el Raval", "name": "Hotel Lloret", "district": "Ciutat Vella", "created": "1996-09-17T00:00:00Z", "cats": ["1 estrella", "Hotels", "Allotjament"], "address": "C la Rambla 125", "postalCode": "08002", "id": "75990025122"}}, {"geometry": {"type": "Point", "coordinates": [2.1711567777777776, 41.38428501666667]}, "type": "Feature", "id": "75990025139", "properties": {"neighborhood": "el Barri G\u00f2tic", "name": "Hotel Serhs Rivoli Ramblas", "district": "Ciutat Vella", "created": "1996-09-17T00:00:00Z", "cats": ["4 estrelles", "Hotels", "Allotjament"], "address": "C la Rambla 128", "postalCode": "08002", "id": "75990025139"}}, {"geometry": {"type": "Point", "coordinates": [2.1698999166666666, 41.38521983333333]}, "type": "Feature", "id": "75990025159", "properties": {"neighborhood": "el Raval", "name": "Pensi\u00f3 Canaletes", "district": "Ciutat Vella", "created": "1996-09-17T00:00:00Z", "cats": ["1 estrella", "Pensions", "Allotjament"], "address": "C la Rambla 133 5\u00e8", "postalCode": "08002", "id": "75990025159"}}, {"geometry": {"type": "Point", "coordinates": [2.1699009166666667, 41.38521851666667]}, "type": "Feature", "id": "75990025160", "properties": {"neighborhood": "el Raval", "name": "Hostal Resid\u00e8ncia Noya", "district": "Ciutat Vella", "created": "1996-09-17T00:00:00Z", "cats": ["1 estrella", "Pensions", "Allotjament"], "address": "la Rambla 0133", "postalCode": "08002", "id": "75990025160"}}, {"geometry": {"type": "Point", "coordinates": [2.170620638888889, 41.385111216666665]}, "type": "Feature", "id": "75990025169", "properties": {"neighborhood": "el Barri G\u00f2tic", "name": "Hotel Continental", "district": "Ciutat Vella", "created": "1996-09-17T00:00:00Z", "cats": ["3 estrelles", "Hotels", "Allotjament"], "address": "C la Rambla 138", "postalCode": "08002", "id": "75990025169"}}, {"geometry": {"type": "Point", "coordinates": [2.170620638888889, 41.385111216666665]}, "type": "Feature", "id": "75990025172", "properties": {"neighborhood": "el Barri G\u00f2tic", "name": "Hotel Toledano", "district": "Ciutat Vella", "created": "1996-09-17T00:00:00Z", "cats": ["1 estrella", "Hotels", "Allotjament"], "address": "la Rambla 138", "postalCode": "08002", "id": "75990025172"}}, {"geometry": {"type": "Point", "coordinates": [2.145558388888889, 41.377050108333336]}, "type": "Feature", "id": "75990025644", "properties": {"neighborhood": "Hostafrancs", "name": "Hostal Resid\u00e8ncia B\u00e9jar", "district": "Sants-Montju\u00efc", "created": "1996-09-17T00:00:00Z", "cats": ["2 estrelles", "Pensions", "Allotjament"], "address": "B\u00e9jar 36 0B 01", "postalCode": "08014", "id": "75990025644"}}, {"geometry": {"type": "Point", "coordinates": [2.1397256944444445, 41.41037766388889]}, "type": "Feature", "id": "75990026619", "properties": {"neighborhood": "el Putxet i el Farr\u00f3", "name": "Aparthotel Bertran", "district": "Sarri\u00e0-Sant Gervasi", "created": "1996-09-17T00:00:00Z", "cats": ["Apartaments", "Allotjament"], "address": "C Bertran 150", "postalCode": "08023", "id": "75990026619"}}, {"geometry": {"type": "Point", "coordinates": [2.1744354166666664, 41.38152157222222]}, "type": "Feature", "id": "75990027891", "properties": {"neighborhood": "el Barri G\u00f2tic", "name": "Hostal Resid\u00e8ncia Europa", "district": "Ciutat Vella", "created": "1996-09-17T00:00:00Z", "cats": ["1 estrella", "Pensions", "Allotjament"], "address": "Boqueria 0018", "postalCode": "08002", "id": "75990027891"}}, {"geometry": {"type": "Point", "coordinates": [2.1511733611111112, 41.40208360555555]}, "type": "Feature", "id": "75990028628", "properties": {"neighborhood": "la Vila de Gr\u00e0cia", "name": "Hotel Apartamentos Silver", "district": "Gr\u00e0cia", "created": "1996-09-17T00:00:00Z", "cats": ["3 estrelles", "Hotels", "Allotjament", "Hotels apartaments"], "address": "Bret\u00f3n de los Herreros 26", "postalCode": "08012", "id": "75990028628"}}, {"geometry": {"type": "Point", "coordinates": [2.1531949722222223, 41.380936525]}, "type": "Feature", "id": "75990030639", "properties": {"neighborhood": "la Nova Esquerra de l'Eixample", "name": "Aparthotel Calabria", "district": "Eixample", "created": "1996-09-17T00:00:00Z", "cats": ["Apartaments", "Allotjament"], "address": "C Cal\u00e0bria 129", "postalCode": "08015", "id": "75990030639"}}, {"geometry": {"type": "Point", "coordinates": [2.1714011666666666, 41.384645597222224]}, "type": "Feature", "id": "75990032645", "properties": {"neighborhood": "el Barri G\u00f2tic", "name": "Hostal Campi", "district": "Ciutat Vella", "created": "1996-09-17T00:00:00Z", "cats": ["1 estrella", "Pensions", "Allotjament"], "address": "Canuda 0004", "postalCode": "08002", "id": "75990032645"}}, {"geometry": {"type": "Point", "coordinates": [2.1247779444444443, 41.39307011111111]}, "type": "Feature", "id": "75990032889", "properties": {"neighborhood": "Sarri\u00e0", "name": "Hotel Husa Bonanova Park", "district": "Sarri\u00e0-Sant Gervasi", "created": "1996-09-17T00:00:00Z", "cats": ["2 estrelles", "Hotels", "Allotjament"], "address": "Capit\u00e0 Arenas 51", "postalCode": "08034", "id": "75990032889"}}, {"geometry": {"type": "Point", "coordinates": [2.1697728055555556, 41.3820508]}, "type": "Feature", "id": "75990034160", "properties": {"neighborhood": "el Raval", "name": "Hotel Aneto", "district": "Ciutat Vella", "created": "1996-09-17T00:00:00Z", "cats": ["1 estrella", "Hotels", "Allotjament"], "address": "C Carme 38", "postalCode": "08001", "id": "75990034160"}}, {"geometry": {"type": "Point", "coordinates": [2.1699844444444443, 41.38895506944444]}, "type": "Feature", "id": "75990035772", "properties": {"neighborhood": "la Dreta de l'Eixample", "name": "Hotel Barcelona", "district": "Eixample", "created": "1996-09-17T00:00:00Z", "cats": ["4 estrelles", "Hotels", "Allotjament"], "address": "Casp 13", "postalCode": "08010", "id": "75990035772"}}, {"geometry": {"type": "Point", "coordinates": [2.1820526944444443, 41.403789527777775]}, "type": "Feature", "id": "75990036723", "properties": {"neighborhood": "la Sagrada Fam\u00edlia", "name": "Hostal Resid\u00e8ncia Ruta de Fran\u00e7a", "district": "Eixample", "created": "1996-09-17T00:00:00Z", "cats": ["2 estrelles", "Pensions", "Allotjament"], "address": "Castillejos 0204", "postalCode": "08013", "id": "75990036723"}}, {"geometry": {"type": "Point", "coordinates": [2.1731005, 41.41061073611111]}, "type": "Feature", "id": "75990036948", "properties": {"neighborhood": "el Baix Guinard\u00f3", "name": "Hotel Medicis", "district": "Horta-Guinard\u00f3", "created": "1996-09-17T00:00:00Z", "cats": ["2 estrelles", "Hotels", "Allotjament"], "address": "C Castillejos 340", "postalCode": "08025", "id": "75990036948"}}, {"geometry": {"type": "Point", "coordinates": [2.166324972222222, 41.38951750277778]}, "type": "Feature", "id": "75990037405", "properties": {"neighborhood": "la Dreta de l'Eixample", "name": "Hotel NH Calder\u00f3n", "district": "Eixample", "created": "1996-09-17T00:00:00Z", "cats": ["4 estrelles", "Hotels", "Allotjament", "Sales d'usos polivalents", "Sales d'actes", "Cultura i lleure"], "address": "Rbla Catalunya 26", "postalCode": "08007", "id": "75990037405"}}, {"geometry": {"type": "Point", "coordinates": [2.164961722222222, 41.390166236111114]}, "type": "Feature", "id": "75990037517", "properties": {"neighborhood": "la Dreta de l'Eixample", "name": "Hostal Resid\u00e8ncia Neutral", "district": "Eixample", "created": "1996-09-17T00:00:00Z", "cats": ["2 estrelles", "Pensions", "Allotjament"], "address": "Rbla Catalunya 42", "postalCode": "08007", "id": "75990037517"}}, {"geometry": {"type": "Point", "coordinates": [2.1615855833333333, 41.39262820277778]}, "type": "Feature", "id": "75990037842", "properties": {"neighborhood": "la Dreta de l'Eixample", "name": "Hostal Resid\u00e8ncia Windsor", "district": "Eixample", "created": "1996-09-17T00:00:00Z", "cats": ["2 estrelles", "Pensions", "Allotjament"], "address": "Rbla Catalunya 84 O1", "postalCode": "08008", "id": "75990037842"}}, {"geometry": {"type": "Point", "coordinates": [2.1757241111111107, 41.384878625]}, "type": "Feature", "id": "75990038308", "properties": {"neighborhood": "el Barri G\u00f2tic", "name": "Hotel Col\u00f3n", "district": "Ciutat Vella", "created": "1996-09-17T00:00:00Z", "cats": ["4 estrelles", "Hotels", "Allotjament"], "address": "Av Catedral 7", "postalCode": "08002", "id": "75990038308"}}, {"geometry": {"type": "Point", "coordinates": [2.1334078055555556, 41.40500586666666]}, "type": "Feature", "id": "75990039581", "properties": {"neighborhood": "Sant Gervasi - la Bonanova", "name": "Resid\u00e8ncia d'Estudiants Roca", "district": "Sarri\u00e0-Sant Gervasi", "created": "1996-09-17T00:00:00Z", "cats": ["Resid\u00e8ncies d'estudiants", "Allotjament", "Centres d'acolliment per a dones", "Dones", "Serveis Socials - Ciutat"], "address": "C Ciutat de Balaguer 65", "postalCode": "08022", "id": "75990039581"}}, {"geometry": {"type": "Point", "coordinates": [2.1601211666666664, 41.39477934166666]}, "type": "Feature", "id": "75990040560", "properties": {"neighborhood": "la Dreta de l'Eixample", "name": "Resid\u00e8ncia Estudiants Nuestra Se\u00f1ora de la Consolaci\u00f3n", "district": "Eixample", "created": "1996-09-18T00:00:00Z", "cats": ["Resid\u00e8ncies d'estudiants", "Allotjament", "Centres d'acolliment per a dones", "Dones", "Serveis Socials - Ciutat"], "address": "Ptge Concepci\u00f3 8", "postalCode": "08008", "id": "75990040560"}}, {"geometry": {"type": "Point", "coordinates": [2.122361388888889, 41.37730823611111]}, "type": "Feature", "id": "75990041895", "properties": {"neighborhood": "la Maternitat i Sant Ramon", "name": "Hostal Resid\u00e8ncia Conde G\u00fcell", "district": "Les Corts", "created": "1996-09-18T00:00:00Z", "cats": ["1 estrella", "Pensions", "Allotjament"], "address": "Comte de G\u00fcell 32", "postalCode": "08028", "id": "75990041895"}}, {"geometry": {"type": "Point", "coordinates": [2.1702780833333333, 41.39466998611111]}, "type": "Feature", "id": "75990043118", "properties": {"neighborhood": "la Dreta de l'Eixample", "name": "Resid\u00e8ncia Estudiants Religiosa Maria Immaculada", "district": "Eixample", "created": "1996-09-18T00:00:00Z", "cats": ["Resid\u00e8ncies d'estudiants", "Allotjament"], "address": "Consell de Cent 393", "postalCode": "08009", "id": "75990043118"}}, {"geometry": {"type": "Point", "coordinates": [2.163581611111111, 41.39959373055556]}, "type": "Feature", "id": "75990044652", "properties": {"neighborhood": "la Dreta de l'Eixample", "name": "Resid\u00e8ncia Estudiants Lumen", "district": "Eixample", "created": "1996-09-18T00:00:00Z", "cats": ["Resid\u00e8ncies d'estudiants", "Allotjament"], "address": "C C\u00f2rsega 390", "postalCode": "08037", "id": "75990044652"}}, {"geometry": {"type": "Point", "coordinates": [2.1679430833333333, 41.390937638888886]}, "type": "Feature", "id": "75990047933", "properties": {"neighborhood": "la Dreta de l'Eixample", "name": "Hotel Hcc St. Moritz", "district": "Eixample", "created": "1996-09-18T00:00:00Z", "cats": ["4 estrelles", "Hotels", "Allotjament"], "address": "C Diputaci\u00f3 262*264", "postalCode": "08007", "id": "75990047933"}}, {"geometry": {"type": "Point", "coordinates": [2.1780600555555556, 41.39851409166667]}, "type": "Feature", "id": "75990048361", "properties": {"neighborhood": "el Fort Pienc", "name": "Hotel Antibes", "district": "Eixample", "created": "1996-09-18T00:00:00Z", "cats": ["2 estrelles", "Hotels", "Allotjament"], "address": "C Diputaci\u00f3 394", "postalCode": "08013", "id": "75990048361"}}, {"geometry": {"type": "Point", "coordinates": [2.166324972222222, 41.38951750277778]}, "type": "Feature", "id": "75990048513", "properties": {"neighborhood": "la Dreta de l'Eixample", "name": "NH Hoteles", "district": "Eixample", "created": "1996-09-18T00:00:00Z", "cats": ["Cadenes i empreses hoteleres", "Allotjament"], "address": "Rbla Catalunya 26", "postalCode": "08007", "id": "75990048513"}}, {"geometry": {"type": "Point", "coordinates": [2.1562384166666666, 41.397729838888885]}, "type": "Feature", "id": "75990049181", "properties": {"neighborhood": "la Vila de Gr\u00e0cia", "name": "Resid\u00e8ncia Teatinas Immaculada Concepci\u00f3", "district": "Gr\u00e0cia", "created": "1996-09-18T00:00:00Z", "cats": ["Resid\u00e8ncies d'estudiants", "Allotjament"], "address": "Doctor Rizal 6", "postalCode": "08006", "id": "75990049181"}}, {"geometry": {"type": "Point", "coordinates": [2.178370861111111, 41.37862358333334]}, "type": "Feature", "id": "75990049723", "properties": {"neighborhood": "el Barri G\u00f2tic", "name": "Pensi\u00f3 Medinaceli", "district": "Ciutat Vella", "created": "1996-09-18T00:00:00Z", "cats": ["1 estrella", "Pensions", "Allotjament"], "address": "Pl Duc de Medinaceli 1 Principal 03", "postalCode": "08002", "id": "75990049723"}}, {"geometry": {"type": "Point", "coordinates": [2.1763909999999997, 41.382019891666666]}, "type": "Feature", "id": "75990054861", "properties": {"neighborhood": "el Barri G\u00f2tic", "name": "Hotel Rialto", "district": "Ciutat Vella", "created": "1996-09-18T00:00:00Z", "cats": ["3 estrelles", "Hotels", "Allotjament"], "address": "Ferran 40*42", "postalCode": "08002", "id": "75990054861"}}, {"geometry": {"type": "Point", "coordinates": [2.1725038333333333, 41.38798374444444]}, "type": "Feature", "id": "75990056141", "properties": {"neighborhood": "el Barri G\u00f2tic", "name": "Hostal Resid\u00e8ncia Lima", "district": "Ciutat Vella", "created": "1996-09-18T00:00:00Z", "cats": ["2 estrelles", "Pensions", "Allotjament"], "address": "Fontanella 0016", "postalCode": "08010", "id": "75990056141"}}, {"geometry": {"type": "Point", "coordinates": [2.1245094166666667, 41.394772277777776]}, "type": "Feature", "id": "75990056198", "properties": {"neighborhood": "Sarri\u00e0", "name": "Hotel NH Pedralbes", "district": "Sarri\u00e0-Sant Gervasi", "created": "1996-09-18T00:00:00Z", "cats": ["3 estrelles", "Hotels", "Allotjament"], "address": "Fontcoberta 4", "postalCode": "08034", "id": "75990056198"}}, {"geometry": {"type": "Point", "coordinates": [2.136871, 41.395982241666665]}, "type": "Feature", "id": "75990058192", "properties": {"neighborhood": "Sant Gervasi - Galvany", "name": "Hotel Apartamentos Ganduxer S.A.", "district": "Sarri\u00e0-Sant Gervasi", "created": "1996-09-18T00:00:00Z", "cats": ["Apartaments", "Allotjament"], "address": "Ganduxer 50", "postalCode": "08021", "id": "75990058192"}}, {"geometry": {"type": "Point", "coordinates": [2.18474925, 41.383188975]}, "type": "Feature", "id": "75990059078", "properties": {"neighborhood": "Sant Pere, Santa Caterina i la Ribera", "name": "Hotel Lyon", "district": "Ciutat Vella", "created": "1996-09-18T00:00:00Z", "cats": ["1 estrella", "Hotels", "Allotjament"], "address": "C General Casta\u00f1os 6", "postalCode": "08003", "id": "75990059078"}}, {"geometry": {"type": "Point", "coordinates": [2.179911361111111, 41.38043260277778]}, "type": "Feature", "id": "75990059728", "properties": {"neighborhood": "el Barri G\u00f2tic", "name": "Hotel  Hesperia Metropol", "district": "Ciutat Vella", "created": "1996-09-18T00:00:00Z", "cats": ["3 estrelles", "Hotels", "Allotjament"], "address": "C Ample 31", "postalCode": "08002", "id": "75990059728"}}, {"geometry": {"type": "Point", "coordinates": [2.145956361111111, 41.39334421111111]}, "type": "Feature", "id": "75990060071", "properties": {"neighborhood": "Sant Gervasi - Galvany", "name": "Hotel Covadonga", "district": "Sarri\u00e0-Sant Gervasi", "created": "1996-09-18T00:00:00Z", "cats": ["3 estrelles", "Hotels", "Allotjament"], "address": "Av Diagonal 596", "postalCode": "08021", "id": "75990060071"}}, {"geometry": {"type": "Point", "coordinates": [2.1500067499999997, 41.39436659166667]}, "type": "Feature", "id": "75990061604", "properties": {"neighborhood": "Sant Gervasi - Galvany", "name": "Hotel Wilson", "district": "Sarri\u00e0-Sant Gervasi", "created": "1996-09-18T00:00:00Z", "cats": ["3 estrelles", "Hotels", "Allotjament"], "address": "Av Diagonal 568", "postalCode": "08021", "id": "75990061604"}}, {"geometry": {"type": "Point", "coordinates": [2.131376027777778, 41.38889217222222]}, "type": "Feature", "id": "75990061694", "properties": {"neighborhood": "les Corts", "name": "Hotel Hilton Barcelona", "district": "Les Corts", "created": "1996-09-18T00:00:00Z", "cats": ["4 estrelles", "Hotels", "Allotjament"], "address": "Av Diagonal 589*591", "postalCode": "08014", "id": "75990061694"}}, {"geometry": {"type": "Point", "coordinates": [2.1739943888888886, 41.39251233611111]}, "type": "Feature", "id": "75990062417", "properties": {"neighborhood": "la Dreta de l'Eixample", "name": "Pensi\u00f3 Sardenya", "district": "Eixample", "created": "1996-09-18T00:00:00Z", "cats": ["1 estrella", "Pensions", "Allotjament"], "address": "Girona 0035", "postalCode": "08010", "id": "75990062417"}}, {"geometry": {"type": "Point", "coordinates": [2.1802831388888886, 41.38151735277778]}, "type": "Feature", "id": "75990062796", "properties": {"neighborhood": "el Barri G\u00f2tic", "name": "Hostal Resid\u00e8ncia Marmo", "district": "Ciutat Vella", "created": "1996-09-18T00:00:00Z", "cats": ["1 estrella", "Pensions", "Allotjament"], "address": "Gign\u00e0s 0025", "postalCode": "08002", "id": "75990062796"}}, {"geometry": {"type": "Point", "coordinates": [2.167084583333333, 41.39081755]}, "type": "Feature", "id": "75990063571", "properties": {"neighborhood": "la Dreta de l'Eixample", "name": "Hostal Resid\u00e8ncia Oliva", "district": "Eixample", "created": "1996-09-18T00:00:00Z", "cats": ["2 estrelles", "Pensions", "Allotjament"], "address": "Pg Gr\u00e0cia 0032", "postalCode": "08007", "id": "75990063571"}}, {"geometry": {"type": "Point", "coordinates": [2.1610050277777777, 41.395721216666665]}, "type": "Feature", "id": "75990064357", "properties": {"neighborhood": "la Dreta de l'Eixample", "name": "Hotel Paseo de Gr\u00e0cia", "district": "Eixample", "created": "1996-09-18T00:00:00Z", "cats": ["3 estrelles", "Hotels", "Allotjament"], "address": "Pg Gr\u00e0cia 102", "postalCode": "08008", "id": "75990064357"}}, {"geometry": {"type": "Point", "coordinates": [2.165651222222222, 41.38529766111111]}, "type": "Feature", "id": "75990064944", "properties": {"neighborhood": "el Raval", "name": "Hotel Reding", "district": "Ciutat Vella", "created": "1996-09-18T00:00:00Z", "cats": ["3 estrelles", "Hotels", "Allotjament"], "address": "Gravina 5*7", "postalCode": "08001", "id": "75990064944"}}, {"geometry": {"type": "Point", "coordinates": [2.1658108333333335, 41.38541823888889]}, "type": "Feature", "id": "75990064948", "properties": {"neighborhood": "el Raval", "name": "Hotel H10 Gravina", "district": "Ciutat Vella", "created": "1996-09-18T00:00:00Z", "cats": ["3 estrelles", "Hotels", "Allotjament"], "address": "C Gravina 12", "postalCode": "08001", "id": "75990064948"}}, {"geometry": {"type": "Point", "coordinates": [2.12573325, 41.399322894444445]}, "type": "Feature", "id": "75990066322", "properties": {"neighborhood": "les Tres Torres", "name": "Col.legi Major Sagrat Cor", "district": "Sarri\u00e0-Sant Gervasi", "created": "1996-09-18T00:00:00Z", "cats": ["Col.legis majors", "Allotjament"], "address": "C Hort de la Vila 46", "postalCode": "08017", "id": "75990066322"}}, {"geometry": {"type": "Point", "coordinates": [2.16956975, 41.38016635555556]}, "type": "Feature", "id": "75990066517", "properties": {"neighborhood": "el Raval", "name": "Pensi\u00f3 Tamashiro", "district": "Ciutat Vella", "created": "1996-09-18T00:00:00Z", "cats": ["1 estrella", "Pensions", "Allotjament"], "address": "Hospital 0093", "postalCode": "08001", "id": "75990066517"}}, {"geometry": {"type": "Point", "coordinates": [2.14295625, 41.3890452]}, "type": "Feature", "id": "75990068324", "properties": {"neighborhood": "les Corts", "name": "Hotel Prisma", "district": "Les Corts", "created": "1996-09-18T00:00:00Z", "cats": ["2 estrelles", "Hotels", "Allotjament"], "address": "Av Josep Tarradellas 119*121", "postalCode": "08029", "id": "75990068324"}}, {"geometry": {"type": "Point", "coordinates": [2.167379111111111, 41.38907796944444]}, "type": "Feature", "id": "75990070505", "properties": {"neighborhood": "la Dreta de l'Eixample", "name": "Hotel Avenida Palace", "district": "Eixample", "created": "1996-09-18T00:00:00Z", "cats": ["4 estrelles", "Hotels", "Allotjament"], "address": "G.V. Corts Catalanes 605*607", "postalCode": "08007", "id": "75990070505"}}, {"geometry": {"type": "Point", "coordinates": [2.1659398333333333, 41.38905716666667]}, "type": "Feature", "id": "75990070681", "properties": {"neighborhood": "la Dreta de l'Eixample", "name": "Hostal Palacios", "district": "Eixample", "created": "1996-09-18T00:00:00Z", "cats": ["2 estrelles", "Pensions", "Allotjament"], "address": "Rbla Catalunya 27 1r", "postalCode": "08007", "id": "75990070681"}}, {"geometry": {"type": "Point", "coordinates": [2.1721956944444445, 41.39270169444445]}, "type": "Feature", "id": "75990070820", "properties": {"neighborhood": "la Dreta de l'Eixample", "name": "Hotel Silken Gran Havana", "district": "Eixample", "created": "1996-09-18T00:00:00Z", "cats": ["4 estrelles", "Hotels", "Allotjament"], "address": "G.V. Corts Catalanes 647", "postalCode": "08010", "id": "75990070820"}}, {"geometry": {"type": "Point", "coordinates": [2.171563611111111, 41.39156421944445]}, "type": "Feature", "id": "75990070915", "properties": {"neighborhood": "la Dreta de l'Eixample", "name": "Hotel Palace", "district": "Eixample", "created": "1996-09-18T00:00:00Z", "cats": ["5 estrelles", "Hotels", "Allotjament"], "address": "G.V. Corts Catalanes 668 bxs", "postalCode": "08010", "id": "75990070915"}}, {"geometry": {"type": "Point", "coordinates": [2.173726111111111, 41.39318864166667]}, "type": "Feature", "id": "75990071043", "properties": {"neighborhood": "la Dreta de l'Eixample", "name": "Hostal d'Uxelles", "district": "Eixample", "created": "1996-09-18T00:00:00Z", "cats": ["1 estrella", "Pensions", "Allotjament"], "address": "G.V. Corts Catalanes 688", "postalCode": "08010", "id": "75990071043"}}, {"geometry": {"type": "Point", "coordinates": [2.171154083333333, 41.380078697222224]}, "type": "Feature", "id": "75990073554", "properties": {"neighborhood": "el Raval", "name": "Hotel Principal", "district": "Ciutat Vella", "created": "1996-09-18T00:00:00Z", "cats": ["3 estrelles", "Hotels", "Allotjament"], "address": "Junta de Comer\u00e7 8", "postalCode": "08001", "id": "75990073554"}}, {"geometry": {"type": "Point", "coordinates": [2.1713934166666666, 41.37999453888889]}, "type": "Feature", "id": "75990073556", "properties": {"neighborhood": "el Raval", "name": "Hostal Resid\u00e8ncia Segura", "district": "Ciutat Vella", "created": "1996-09-18T00:00:00Z", "cats": ["1 estrella", "Pensions", "Allotjament"], "address": "Junta de Comer\u00e7 0011", "postalCode": "08001", "id": "75990073556"}}, {"geometry": {"type": "Point", "coordinates": [2.171154083333333, 41.380078697222224]}, "type": "Feature", "id": "75990073557", "properties": {"neighborhood": "el Raval", "name": "Hotel Joventut", "district": "Ciutat Vella", "created": "1996-09-18T00:00:00Z", "cats": ["2 estrelles", "Hotels", "Allotjament"], "address": "C Junta de Comer\u00e7 8-12", "postalCode": "08001", "id": "75990073557"}}, {"geometry": {"type": "Point", "coordinates": [2.1714612222222223, 41.37991896944445]}, "type": "Feature", "id": "75990073558", "properties": {"neighborhood": "el Raval", "name": "Pensi\u00f3 Venecia", "district": "Ciutat Vella", "created": "1996-09-18T00:00:00Z", "cats": ["1 estrella", "Pensions", "Allotjament"], "address": "Junta de Comer\u00e7 0013", "postalCode": "08001", "id": "75990073558"}}, {"geometry": {"type": "Point", "coordinates": [2.1483059166666667, 41.40158652222222]}, "type": "Feature", "id": "75990075998", "properties": {"neighborhood": "el Putxet i el Farr\u00f3", "name": "Hotel Apartamentos Augusta", "district": "Sarri\u00e0-Sant Gervasi", "created": "1996-09-18T00:00:00Z", "cats": ["3 estrelles", "Hotels", "Allotjament", "Hotels apartaments"], "address": "C Lincoln 32", "postalCode": "08006", "id": "75990075998"}}, {"geometry": {"type": "Point", "coordinates": [2.1419673055555557, 41.38977128333333]}, "type": "Feature", "id": "75990076583", "properties": {"neighborhood": "Les Corts", "name": "Derby Hotels - Hotel Derby", "district": "Les Corts", "created": "1996-09-18T00:00:00Z", "cats": ["4 estrelles", "Hotels", "Allotjament"], "address": "C Loreto 21*25", "postalCode": "08029", "id": "75990076583"}}, {"geometry": {"type": "Point", "coordinates": [2.1422392222222224, 41.39001869166667]}, "type": "Feature", "id": "75990076596", "properties": {"neighborhood": "les Corts", "name": "Hotel Gran Derby Suites", "district": "Les Corts", "created": "1996-09-18T00:00:00Z", "cats": ["4 estrelles", "Hotels", "Allotjament", "Sales d'usos polivalents", "Sales d'actes", "Cultura i lleure"], "address": "C Loreto 28", "postalCode": "08029", "id": "75990076596"}}, {"geometry": {"type": "Point", "coordinates": [2.146552361111111, 41.39826070833333]}, "type": "Feature", "id": "75990078504", "properties": {"neighborhood": "Sant Gervasi - Galvany", "name": "Pensi\u00f3 Madrazo", "district": "Sarri\u00e0-Sant Gervasi", "created": "1996-09-18T00:00:00Z", "cats": ["1 estrella", "Pensions", "Allotjament"], "address": "Madrazo 103 01", "postalCode": "08021", "id": "75990078504"}}, {"geometry": {"type": "Point", "coordinates": [2.1429264444444445, 41.37918034166667]}, "type": "Feature", "id": "75990079611", "properties": {"neighborhood": "Hostafrancs", "name": "Expo Hotel Barcelona", "district": "Sants-Montju\u00efc", "created": "1996-09-18T00:00:00Z", "cats": ["4 estrelles", "Hotels", "Allotjament"], "address": "C Mallorca 1*23 bxs", "postalCode": "08014", "id": "75990079611"}}, {"geometry": {"type": "Point", "coordinates": [2.156496361111111, 41.38940579166667]}, "type": "Feature", "id": "75990079932", "properties": {"neighborhood": "l'Antiga Esquerra de l'Eixample", "name": "Hotel Best Western Premier Hotel Dante", "district": "Eixample", "created": "1996-09-18T00:00:00Z", "cats": ["4 estrelles", "Hotels", "Allotjament"], "address": "C Mallorca 181", "postalCode": "08036", "id": "75990079932"}}, {"geometry": {"type": "Point", "coordinates": [2.1592168055555554, 41.391176405555555]}, "type": "Feature", "id": "75990079989", "properties": {"neighborhood": "l'Antiga Esquerra de l'Eixample", "name": "Hotel Balmes", "district": "Eixample", "created": "1996-09-18T00:00:00Z", "cats": ["3 estrelles", "Hotels", "Allotjament"], "address": "C Mallorca 216", "postalCode": "08008", "id": "75990079989"}}, {"geometry": {"type": "Point", "coordinates": [2.1605529722222223, 41.392185194444444]}, "type": "Feature", "id": "75990080112", "properties": {"neighborhood": "la Dreta de l'Eixample", "name": "Resid\u00e8ncia Esclavas del Sagrado Coraz\u00f3n de Jes\u00fas", "district": "Eixample", "created": "1996-09-18T00:00:00Z", "cats": ["Resid\u00e8ncies d'estudiants", "Allotjament", "Centres d'acolliment per a dones", "Dones", "Serveis Socials - Ciutat"], "address": "Mallorca 234", "postalCode": "08008", "id": "75990080112"}}, {"geometry": {"type": "Point", "coordinates": [2.1615284444444445, 41.393197791666665]}, "type": "Feature", "id": "75990080203", "properties": {"neighborhood": "la Dreta de l'Eixample", "name": "Hotel Alexandra", "district": "Eixample", "created": "1996-09-18T00:00:00Z", "cats": ["4 estrelles", "Hotels", "Allotjament"], "address": "Mallorca 251", "postalCode": "08008", "id": "75990080203"}}, {"geometry": {"type": "Point", "coordinates": [2.161765, 41.393372925]}, "type": "Feature", "id": "75990080211", "properties": {"neighborhood": "la Dreta de l'Eixample", "name": "Hostal Resid\u00e8ncia Ciudad Condal", "district": "Eixample", "created": "1996-09-18T00:00:00Z", "cats": ["2 estrelles", "Pensions", "Allotjament"], "address": "Mallorca 255", "postalCode": "08008", "id": "75990080211"}}, {"geometry": {"type": "Point", "coordinates": [2.1682105555555555, 41.39823130277778]}, "type": "Feature", "id": "75990080602", "properties": {"neighborhood": "la Dreta de l'Eixample", "name": "Hostal Resid\u00e8ncia Felipe II", "district": "Eixample", "created": "1996-09-18T00:00:00Z", "cats": ["2 estrelles", "Pensions", "Allotjament"], "address": "Mallorca 0329 03 01", "postalCode": "08037", "id": "75990080602"}}, {"geometry": {"type": "Point", "coordinates": [2.1693909166666665, 41.37515595833333]}, "type": "Feature", "id": "75990084349", "properties": {"neighborhood": "el Raval", "name": "Hotel Auto Hogar", "district": "Ciutat Vella", "created": "1996-09-18T00:00:00Z", "cats": ["2 estrelles", "Hotels", "Allotjament"], "address": "Av Paral.lel 64", "postalCode": "08001", "id": "75990084349"}}, {"geometry": {"type": "Point", "coordinates": [2.1265258611111113, 41.406111625]}, "type": "Feature", "id": "75990084868", "properties": {"neighborhood": "Sant Gervasi - la Bonanova", "name": "Resid\u00e8ncia Emilie de Villeneuve", "district": "Sarri\u00e0-Sant Gervasi", "created": "1996-09-18T00:00:00Z", "cats": ["Resid\u00e8ncies d'estudiants", "Allotjament", "Centres d'acolliment per a dones", "Dones", "Serveis Socials - Ciutat"], "address": "Marquesa de Vilallonga 19", "postalCode": "08017", "id": "75990084868"}}, {"geometry": {"type": "Point", "coordinates": [2.155286611111111, 41.3998686]}, "type": "Feature", "id": "75990085692", "properties": {"neighborhood": "la Vila de Gr\u00e0cia", "name": "Hostal Resid\u00e8ncia Abete", "district": "Gr\u00e0cia", "created": "1996-09-18T00:00:00Z", "cats": ["1 estrella", "Pensions", "Allotjament"], "address": "Gran de Gr\u00e0cia 0067", "postalCode": "08012", "id": "75990085692"}}, {"geometry": {"type": "Point", "coordinates": [2.1333935833333335, 41.37770467222222]}, "type": "Feature", "id": "75990088040", "properties": {"neighborhood": "Sants", "name": "Pensi\u00f3 Pascual Roig *Miguel \u00c1ngel", "district": "Sants-Montju\u00efc", "created": "1996-09-18T00:00:00Z", "cats": ["1 estrella", "Pensions", "Allotjament"], "address": "Miquel \u00c0ngel 49", "postalCode": "08028", "id": "75990088040"}}, {"geometry": {"type": "Point", "coordinates": [2.162137694444444, 41.397890741666664]}, "type": "Feature", "id": "75990088776", "properties": {"neighborhood": "la Dreta de l'Eixample", "name": "Occidental Hotels", "district": "Eixample", "created": "1996-09-18T00:00:00Z", "cats": ["Cadenes i empreses hoteleres", "Allotjament"], "address": "C Roger de Ll\u00faria 149 1 A", "postalCode": "08037", "id": "75990088776"}}, {"geometry": {"type": "Point", "coordinates": [2.1766853333333334, 41.3793287]}, "type": "Feature", "id": "75990094014", "properties": {"neighborhood": "el Barri G\u00f2tic", "name": "Pensi\u00f3 Badenas Tor\u00e1n", "district": "Ciutat Vella", "created": "1996-09-18T00:00:00Z", "cats": ["1 estrella", "Pensions", "Allotjament"], "address": "Nou de Sant Francesc 0002", "postalCode": "08002", "id": "75990094014"}}, {"geometry": {"type": "Point", "coordinates": [2.175904138888889, 41.37938165277778]}, "type": "Feature", "id": "75990094054", "properties": {"neighborhood": "el Barri G\u00f2tic", "name": "Hotel Comercio", "district": "Ciutat Vella", "created": "1996-09-18T00:00:00Z", "cats": ["1 estrella", "Hotels", "Allotjament"], "address": "Nou de Zurbano 7", "postalCode": "08002", "id": "75990094054"}}, {"geometry": {"type": "Point", "coordinates": [2.137816388888889, 41.38457668611111]}, "type": "Feature", "id": "75990094165", "properties": {"neighborhood": "les Corts", "name": "Hotel NH Num\u00e0ncia", "district": "Les Corts", "created": "1996-09-18T00:00:00Z", "cats": ["3 estrelles", "Hotels", "Allotjament"], "address": "Num\u00e0ncia 72*74", "postalCode": "08029", "id": "75990094165"}}, {"geometry": {"type": "Point", "coordinates": [2.17295525, 41.389489]}, "type": "Feature", "id": "75990094548", "properties": {"neighborhood": "la Dreta de l'Eixample", "name": "Hostal San Carlo", "district": "Eixample", "created": "1996-09-18T00:00:00Z", "cats": ["1 estrella", "Pensions", "Allotjament"], "address": "Pl Urquinaona 0005", "postalCode": "08010", "id": "75990094548"}}, {"geometry": {"type": "Point", "coordinates": [2.1846962777777774, 41.38272176666667]}, "type": "Feature", "id": "75990096089", "properties": {"neighborhood": "Sant Pere, Santa Caterina i la Ribera", "name": "Hotel Oasis II", "district": "Ciutat Vella", "created": "1996-09-18T00:00:00Z", "cats": ["2 estrelles", "Hotels", "Allotjament"], "address": "Pla Palau 17", "postalCode": "08003", "id": "75990096089"}}, {"geometry": {"type": "Point", "coordinates": [2.1535046944444445, 41.39396977777778]}, "type": "Feature", "id": "75990097514", "properties": {"neighborhood": "l'Antiga Esquerra de l'Eixample", "name": "Derby Hotels - Hotel Astoria", "district": "Eixample", "created": "1996-09-18T00:00:00Z", "cats": ["3 estrelles", "Hotels", "Allotjament"], "address": "C Par\u00eds 203", "postalCode": "08036", "id": "75990097514"}}, {"geometry": {"type": "Point", "coordinates": [2.1430404444444444, 41.37816070833333]}, "type": "Feature", "id": "75990097802", "properties": {"neighborhood": "Hostafrancs", "name": "Hotel Tr\u00e0nsit", "district": "Sants-Montju\u00efc", "created": "1996-09-18T00:00:00Z", "cats": ["1 estrella", "Hotels", "Allotjament"], "address": "C Rector Triad\u00f3 82", "postalCode": "08014", "id": "75990097802"}}, {"geometry": {"type": "Point", "coordinates": [2.167258361111111, 41.39275845833333]}, "type": "Feature", "id": "75990098232", "properties": {"neighborhood": "la Dreta de l'Eixample", "name": "Hotel Renaissance Barcelona", "district": "Eixample", "created": "1996-09-18T00:00:00Z", "cats": ["4 estrelles", "Hotels", "Allotjament"], "address": "C Pau Claris 122", "postalCode": "08009", "id": "75990098232"}}, {"geometry": {"type": "Point", "coordinates": [2.117872166666667, 41.37703877777778]}, "type": "Feature", "id": "75990099279", "properties": {"neighborhood": "la Maternitat i Sant Ramon", "name": "Hotel l'Alguer Nou", "district": "Les Corts", "created": "1996-09-18T00:00:00Z", "cats": ["2 estrelles", "Hotels", "Allotjament"], "address": "Ptge Pere Rodr\u00edguez 20", "postalCode": "08028", "id": "75990099279"}}, {"geometry": {"type": "Point", "coordinates": [2.166529611111111, 41.38585456388889]}, "type": "Feature", "id": "75990099366", "properties": {"neighborhood": "la Dreta de l'Eixample", "name": "Hotel Pelayo", "district": "Eixample", "created": "1996-09-18T00:00:00Z", "cats": ["1 estrella", "Hotels", "Allotjament"], "address": "C Pelai 9", "postalCode": "08001", "id": "75990099366"}}, {"geometry": {"type": "Point", "coordinates": [2.1663209444444442, 41.38567492777778]}, "type": "Feature", "id": "75990099434", "properties": {"neighborhood": "el Raval", "name": "Hotel Atlantis", "district": "Ciutat Vella", "created": "1996-09-18T00:00:00Z", "cats": ["3 estrelles", "Hotels", "Allotjament"], "address": "C Pelai 20", "postalCode": "08001", "id": "75990099434"}}, {"geometry": {"type": "Point", "coordinates": [2.166436861111111, 41.385664166666665]}, "type": "Feature", "id": "75990099439", "properties": {"neighborhood": "el Raval", "name": "Hotel Lle\u00f3", "district": "Ciutat Vella", "created": "1996-09-18T00:00:00Z", "cats": ["3 estrelles", "Hotels", "Allotjament"], "address": "C Pelai 22", "postalCode": "08001", "id": "75990099439"}}, {"geometry": {"type": "Point", "coordinates": [2.1696658055555553, 41.38537685833333]}, "type": "Feature", "id": "75990099532", "properties": {"neighborhood": "el Raval", "name": "Hotel Monegal", "district": "Ciutat Vella", "created": "1996-09-18T00:00:00Z", "cats": ["2 estrelles", "Hotels", "Allotjament"], "address": "Pelai 62", "postalCode": "08001", "id": "75990099532"}}, {"geometry": {"type": "Point", "coordinates": [2.1731495, 41.383570919444445]}, "type": "Feature", "id": "75990100144", "properties": {"neighborhood": "el Barri G\u00f2tic", "name": "Hostal Galeries Mald\u00e0 *Galeries Mald\u00e0", "district": "Ciutat Vella", "created": "1996-09-18T00:00:00Z", "cats": ["1 estrella", "Pensions", "Allotjament"], "address": "C Portaferrissa 22", "postalCode": "08002", "id": "75990100144"}}, {"geometry": {"type": "Point", "coordinates": [2.1701604999999997, 41.38307025555556]}, "type": "Feature", "id": "75990100229", "properties": {"neighborhood": "el Raval", "name": "Hotel Tur\u00edn", "district": "Ciutat Vella", "created": "1996-09-18T00:00:00Z", "cats": ["3 estrelles", "Hotels", "Allotjament"], "address": "Pintor Fortuny 9", "postalCode": "08001", "id": "75990100229"}}, {"geometry": {"type": "Point", "coordinates": [2.180048611111111, 41.383768458333336]}, "type": "Feature", "id": "75990100665", "properties": {"neighborhood": "Sant Pere, Santa Caterina i la Ribera", "name": "Hotel Banys Orientals", "district": "Ciutat Vella", "created": "1996-09-18T00:00:00Z", "cats": ["3 estrelles", "Hotels", "Allotjament"], "address": "C Argenteria 37", "postalCode": "08003", "id": "75990100665"}}, {"geometry": {"type": "Point", "coordinates": [2.16598175, 41.374589344444445]}, "type": "Feature", "id": "75990100867", "properties": {"neighborhood": "el Poble Sec", "name": "Hotel Paral.lel", "district": "Sants-Montju\u00efc", "created": "1996-09-18T00:00:00Z", "cats": ["2 estrelles", "Hotels", "Allotjament"], "address": "C Poeta Cabanyes 5 bxs", "postalCode": "08004", "id": "75990100867"}}, {"geometry": {"type": "Point", "coordinates": [2.1644282777777777, 41.37225396666667]}, "type": "Feature", "id": "75990100933", "properties": {"neighborhood": "el Poble Sec", "name": "Pensi\u00f3 Hospederia Garrido", "district": "Sants-Montju\u00efc", "created": "1996-09-18T00:00:00Z", "cats": ["1 estrella", "Pensions", "Allotjament"], "address": "Poeta Cabanyes 64", "postalCode": "08004", "id": "75990100933"}}, {"geometry": {"type": "Point", "coordinates": [2.1735123888888888, 41.38538973055555]}, "type": "Feature", "id": "75990104146", "properties": {"neighborhood": "el Barri G\u00f2tic", "name": "Pensi\u00f3 Arosa", "district": "Ciutat Vella", "created": "1996-09-18T00:00:00Z", "cats": ["1 estrella", "Pensions", "Allotjament"], "address": "Av Portal de l'\u00c0ngel 14", "postalCode": "08002", "id": "75990104146"}}, {"geometry": {"type": "Point", "coordinates": [2.1728681388888886, 41.385906488888885]}, "type": "Feature", "id": "75990104188", "properties": {"neighborhood": "el Barri G\u00f2tic", "name": "Hostal Resid\u00e8ncia Lausane", "district": "Ciutat Vella", "created": "1996-09-18T00:00:00Z", "cats": ["2 estrelles", "Pensions", "Allotjament"], "address": "Av Portal de l'\u00c0ngel 0024", "postalCode": "08002", "id": "75990104188"}}, {"geometry": {"type": "Point", "coordinates": [2.1734959999999997, 41.38378556111111]}, "type": "Feature", "id": "75990104407", "properties": {"neighborhood": "el Barri G\u00f2tic", "name": "Hostal Resid\u00e8ncia Rembrant", "district": "Ciutat Vella", "created": "1996-09-18T00:00:00Z", "cats": ["2 estrelles", "Pensions", "Allotjament"], "address": "Portaferrissa 0023", "postalCode": "08002", "id": "75990104407"}}, {"geometry": {"type": "Point", "coordinates": [2.183711611111111, 41.38211234166667]}, "type": "Feature", "id": "75990106438", "properties": {"neighborhood": "Sant Pere, Santa Caterina i la Ribera", "name": "Hostal Resid\u00e8ncia Oasis I", "district": "Ciutat Vella", "created": "1996-09-18T00:00:00Z", "cats": ["1 estrella", "Pensions", "Allotjament"], "address": "Reina Cristina 0013", "postalCode": "08003", "id": "75990106438"}}, {"geometry": {"type": "Point", "coordinates": [2.1240194722222223, 41.385989280555556]}, "type": "Feature", "id": "75990108091", "properties": {"neighborhood": "la Maternitat i Sant Ramon", "name": "Grup Husa", "district": "Les Corts", "created": "1996-09-18T00:00:00Z", "cats": ["Cadenes i empreses hoteleres", "Allotjament"], "address": "Sabino Arana 0027 Baix", "postalCode": "08028", "id": "75990108091"}}, {"geometry": {"type": "Point", "coordinates": [2.144985388888889, 41.38149908611111]}, "type": "Feature", "id": "75990109927", "properties": {"neighborhood": "la Nova Esquerra de l'Eixample", "name": "Hotel Abbot", "district": "Eixample", "created": "1996-09-18T00:00:00Z", "cats": ["4 estrelles", "Hotels", "Allotjament"], "address": "Av Roma 23", "postalCode": "08029", "id": "75990109927"}}, {"geometry": {"type": "Point", "coordinates": [2.1593179166666667, 41.394943616666666]}, "type": "Feature", "id": "75990110883", "properties": {"neighborhood": "la Dreta de l'Eixample", "name": "Gallery Hotel", "district": "Eixample", "created": "1996-09-18T00:00:00Z", "cats": ["4 estrelles", "Hotels", "Allotjament"], "address": "Rossell\u00f3 249*251", "postalCode": "08008", "id": "75990110883"}}, {"geometry": {"type": "Point", "coordinates": [2.17563775, 41.385335588888886]}, "type": "Feature", "id": "75990112160", "properties": {"neighborhood": "el Barri G\u00f2tic", "name": "Hotel Regencia Col\u00f3n", "district": "Ciutat Vella", "created": "1996-09-18T00:00:00Z", "cats": ["3 estrelles", "Hotels", "Allotjament"], "address": "C Sagristans 13", "postalCode": "08002", "id": "75990112160"}}, {"geometry": {"type": "Point", "coordinates": [2.1715916388888887, 41.38050856666667]}, "type": "Feature", "id": "75990112772", "properties": {"neighborhood": "el Raval", "name": "Hotel Sant Agust\u00ed", "district": "Ciutat Vella", "created": "1996-09-18T00:00:00Z", "cats": ["3 estrelles", "Hotels", "Allotjament"], "address": "Pl Sant Agust\u00ed 3", "postalCode": "08001", "id": "75990112772"}}, {"geometry": {"type": "Point", "coordinates": [2.146212888888889, 41.37245383333333]}, "type": "Feature", "id": "75990114764", "properties": {"neighborhood": "la Font de la Guatlla", "name": "Hotel Climent", "district": "Sants-Montju\u00efc", "created": "1996-09-18T00:00:00Z", "cats": ["1 estrella", "Hotels", "Allotjament"], "address": "G.V. Corts Catalanes 304", "postalCode": "08004", "id": "75990114764"}}, {"geometry": {"type": "Point", "coordinates": [2.173968472222222, 41.382503983333336]}, "type": "Feature", "id": "75990115470", "properties": {"neighborhood": "el Barri G\u00f2tic", "name": "Pensi\u00f3 Jard\u00ed", "district": "Ciutat Vella", "created": "1996-09-18T00:00:00Z", "cats": ["2 estrelles", "Pensions", "Allotjament"], "address": "Pl Sant Josep Oriol 0001", "postalCode": "08002", "id": "75990115470"}}, {"geometry": {"type": "Point", "coordinates": [2.1728294999999997, 41.3799509]}, "type": "Feature", "id": "75990115898", "properties": {"neighborhood": "el Raval", "name": "Hotel Espa\u00f1a", "district": "Ciutat Vella", "created": "1996-09-18T00:00:00Z", "cats": ["4 estrelles", "Hotels", "Allotjament", "Arquitectura", "Cultura i lleure"], "address": "C Sant Pau 9*11", "postalCode": "08001", "id": "75990115898"}}, {"geometry": {"type": "Point", "coordinates": [2.172620611111111, 41.37963320833333]}, "type": "Feature", "id": "75990115911", "properties": {"neighborhood": "el Raval", "name": "Pensi\u00f3 River", "district": "Ciutat Vella", "created": "1996-09-18T00:00:00Z", "cats": ["1 estrella", "Pensions", "Allotjament"], "address": "Sant Pau 0015", "postalCode": "08001", "id": "75990115911"}}, {"geometry": {"type": "Point", "coordinates": [2.172493222222222, 41.37959494722222]}, "type": "Feature", "id": "75990115932", "properties": {"neighborhood": "el Raval", "name": "Hotel Peninsular", "district": "Ciutat Vella", "created": "1996-09-18T00:00:00Z", "cats": ["1 estrella", "Hotels", "Allotjament"], "address": "C Sant Pau 34*36", "postalCode": "08001", "id": "75990115932"}}, {"geometry": {"type": "Point", "coordinates": [2.1717359722222223, 41.38545479166667]}, "type": "Feature", "id": "75990117768", "properties": {"neighborhood": "el Barri G\u00f2tic", "name": "Hotel Catalunya", "district": "Ciutat Vella", "created": "1996-09-18T00:00:00Z", "cats": ["2 estrelles", "Hotels", "Allotjament"], "address": "Santa Anna 24", "postalCode": "08002", "id": "75990117768"}}, {"geometry": {"type": "Point", "coordinates": [2.145750027777778, 41.395560725]}, "type": "Feature", "id": "75990118526", "properties": {"neighborhood": "Sant Gervasi - Galvany", "name": "Resid\u00e8ncia Universit\u00e0ria Mare Anna Ravell", "district": "Sarri\u00e0-Sant Gervasi", "created": "1996-09-18T00:00:00Z", "cats": ["Resid\u00e8ncies d'estudiants", "Allotjament", "Centres d'acolliment per a dones", "Dones", "Serveis Socials - Ciutat"], "address": "Santal\u00f3 35", "postalCode": "08021", "id": "75990118526"}}, {"geometry": {"type": "Point", "coordinates": [2.179894694444444, 41.37997638888889]}, "type": "Feature", "id": "75990120912", "properties": {"neighborhood": "el Barri G\u00f2tic", "name": "Pensi\u00f3  Segre", "district": "Ciutat Vella", "created": "1996-09-18T00:00:00Z", "cats": ["1 estrella", "Pensions", "Allotjament"], "address": "Sim\u00f3 Oller 0001", "postalCode": "08002", "id": "75990120912"}}, {"geometry": {"type": "Point", "coordinates": [2.1697701944444443, 41.38474611111111]}, "type": "Feature", "id": "75990121499", "properties": {"neighborhood": "el Raval", "name": "Pensi\u00f3 Aliaga Sol\u00e1", "district": "Ciutat Vella", "created": "1996-09-18T00:00:00Z", "cats": ["1 estrella", "Pensions", "Allotjament"], "address": "Tallers 0006 Principal 01", "postalCode": "08001", "id": "75990121499"}}, {"geometry": {"type": "Point", "coordinates": [2.1697213055555555, 41.384685705555555]}, "type": "Feature", "id": "75990121507", "properties": {"neighborhood": "el Raval", "name": "Pensi\u00f3 Dani.", "district": "Ciutat Vella", "created": "1996-09-18T00:00:00Z", "cats": ["1 estrella", "Pensions", "Allotjament"], "address": "Tallers 0009", "postalCode": "08001", "id": "75990121507"}}, {"geometry": {"type": "Point", "coordinates": [2.1679732777777776, 41.384791880555554]}, "type": "Feature", "id": "75990121563", "properties": {"neighborhood": "el Raval", "name": "Pensi\u00f3 45", "district": "Ciutat Vella", "created": "1996-09-18T00:00:00Z", "cats": ["2 estrelles", "Pensions", "Allotjament"], "address": "C Tallers 45", "postalCode": "08001", "id": "75990121563"}}, {"geometry": {"type": "Point", "coordinates": [2.164320361111111, 41.385252622222225]}, "type": "Feature", "id": "75990121639", "properties": {"neighborhood": "el Raval", "name": "Hostal Resid\u00e8ncia Costa Brava", "district": "Ciutat Vella", "created": "1996-09-18T00:00:00Z", "cats": ["1 estrella", "Pensions", "Allotjament"], "address": "Tallers 0082", "postalCode": "08001", "id": "75990121639"}}, {"geometry": {"type": "Point", "coordinates": [2.136410388888889, 41.38836675277778]}, "type": "Feature", "id": "75990122070", "properties": {"neighborhood": "les Corts", "name": "Apartaments G\u00e8minis", "district": "Les Corts", "created": "1996-09-18T00:00:00Z", "cats": ["Apartaments", "Allotjament"], "address": "C Taqu\u00edgraf Garriga 104", "postalCode": "08029", "id": "75990122070"}}, {"geometry": {"type": "Point", "coordinates": [2.161966361111111, 41.40199898611111]}, "type": "Feature", "id": "75990123625", "properties": {"neighborhood": "la Vila de Gr\u00e0cia", "name": "Hostal Resid\u00e8ncia La Cartuja", "district": "Gr\u00e0cia", "created": "1996-09-18T00:00:00Z", "cats": ["2 estrelles", "Pensions", "Allotjament"], "address": "Tordera 0043", "postalCode": "08012", "id": "75990123625"}}, {"geometry": {"type": "Point", "coordinates": [2.1270783055555555, 41.38144874444445]}, "type": "Feature", "id": "75990124952", "properties": {"neighborhood": "la Maternitat i Sant Ramon", "name": "Hotel NH Rallye", "district": "Les Corts", "created": "1996-09-18T00:00:00Z", "cats": ["4 estrelles", "Hotels", "Allotjament"], "address": "Trav Corts 150*152", "postalCode": "08028", "id": "75990124952"}}, {"geometry": {"type": "Point", "coordinates": [2.136489666666667, 41.387500330555554]}, "type": "Feature", "id": "75990125192", "properties": {"neighborhood": "les Corts", "name": "Hotel NH Les Corts", "district": "Les Corts", "created": "1996-09-18T00:00:00Z", "cats": ["3 estrelles", "Hotels", "Allotjament"], "address": "Trav Corts 292", "postalCode": "08029", "id": "75990125192"}}, {"geometry": {"type": "Point", "coordinates": [2.173271972222222, 41.411289141666664]}, "type": "Feature", "id": "75990126586", "properties": {"neighborhood": "el Baix Guinard\u00f3", "name": "Hotel Everest", "district": "Horta-Guinard\u00f3", "created": "1996-09-18T00:00:00Z", "cats": ["1 estrella", "Hotels", "Allotjament"], "address": "Trav Gr\u00e0cia 441", "postalCode": "08025", "id": "75990126586"}}, {"geometry": {"type": "Point", "coordinates": [2.1734275555555556, 41.37948405555556]}, "type": "Feature", "id": "75990127331", "properties": {"neighborhood": "el Raval", "name": "Pensi\u00f3 Macarena", "district": "Ciutat Vella", "created": "1996-09-18T00:00:00Z", "cats": ["1 estrella", "Pensions", "Allotjament"], "address": "Uni\u00f3 9 Principal 01", "postalCode": "08001", "id": "75990127331"}}, {"geometry": {"type": "Point", "coordinates": [2.1648888333333334, 41.38617153055556]}, "type": "Feature", "id": "75990127529", "properties": {"neighborhood": "la Dreta de l'Eixample", "name": "Hotel Condestable", "district": "Eixample", "created": "1996-09-18T00:00:00Z", "cats": ["1 estrella", "Hotels", "Allotjament"], "address": "Rda Universitat 1", "postalCode": "08007", "id": "75990127529"}}, {"geometry": {"type": "Point", "coordinates": [2.165616138888889, 41.38644514722222]}, "type": "Feature", "id": "75990127585", "properties": {"neighborhood": "la Dreta de l'Eixample", "name": "Hostal Resid\u00e8ncia Australia", "district": "Eixample", "created": "1996-09-18T00:00:00Z", "cats": ["1 estrella", "Pensions", "Allotjament"], "address": "Rda Universitat 11 4t 1a", "postalCode": "08007", "id": "75990127585"}}, {"geometry": {"type": "Point", "coordinates": [2.164513388888889, 41.39345948333333]}, "type": "Feature", "id": "75990129296", "properties": {"neighborhood": "la Dreta de l'Eixample", "name": "Pensi\u00f3 Fani", "district": "Eixample", "created": "1996-09-18T00:00:00Z", "cats": ["1 estrella", "Pensions", "Allotjament"], "address": "Val\u00e8ncia 0278", "postalCode": "08007", "id": "75990129296"}}, {"geometry": {"type": "Point", "coordinates": [2.1842891666666664, 41.408567608333335]}, "type": "Feature", "id": "75990130100", "properties": {"neighborhood": "el Camp de l'Arpa del Clot", "name": "Hostal Resid\u00e8ncia Moreno", "district": "Sant Mart\u00ed", "created": "1996-09-18T00:00:00Z", "cats": ["2 estrelles", "Pensions", "Allotjament"], "address": "Val\u00e8ncia 0577*LB", "postalCode": "08026", "id": "75990130100"}}, {"geometry": {"type": "Point", "coordinates": [2.1665171111111112, 41.38470816666667]}, "type": "Feature", "id": "75990130840", "properties": {"neighborhood": "el Raval", "name": "Hotel Husa Mes\u00f3n Castilla", "district": "Ciutat Vella", "created": "1996-09-18T00:00:00Z", "cats": ["2 estrelles", "Hotels", "Allotjament"], "address": "Valldonzella 5", "postalCode": "08001", "id": "75990130840"}}, {"geometry": {"type": "Point", "coordinates": [2.1679206666666664, 41.38596041666666]}, "type": "Feature", "id": "75990132142", "properties": {"neighborhood": "la Dreta de l'Eixample", "name": "Hotel Regina", "district": "Eixample", "created": "1996-09-18T00:00:00Z", "cats": ["4 estrelles", "Hotels", "Allotjament"], "address": "C Bergara 2*4", "postalCode": "08002", "id": "75990132142"}}, {"geometry": {"type": "Point", "coordinates": [2.1647327777777776, 41.38374076388889]}, "type": "Feature", "id": "75990134661", "properties": {"neighborhood": "el Raval", "name": "Hostal Resid\u00e8ncia Miami", "district": "Ciutat Vella", "created": "1996-09-18T00:00:00Z", "cats": ["2 estrelles", "Pensions", "Allotjament"], "address": "Verge 0016", "postalCode": "08001", "id": "75990134661"}}, {"geometry": {"type": "Point", "coordinates": [2.1124661111111114, 41.32858531111111]}, "type": "Feature", "id": "75990138491", "properties": {"neighborhood": "la Marina del Prat Vermell", "name": "Hotel Best Western Alfa Aeropuerto", "district": "Sants-Montju\u00efc", "created": "1996-11-25T00:00:00Z", "cats": ["4 estrelles", "Hotels", "Allotjament"], "address": "C K Zona Franca 2", "postalCode": "08040", "id": "75990138491"}}, {"geometry": {"type": "Point", "coordinates": [2.165013194444444, 41.39445991388889]}, "type": "Feature", "id": "75990141869", "properties": {"neighborhood": "la Dreta de l'Eixample", "name": "Hotel Claris", "district": "Eixample", "created": "1996-09-18T00:00:00Z", "cats": ["5 estrelles", "Hotels", "Allotjament"], "address": "C Pau Claris 150", "postalCode": "08009", "id": "75990141869"}}, {"geometry": {"type": "Point", "coordinates": [2.1778693055555554, 41.39176558888889]}, "type": "Feature", "id": "75990144542", "properties": {"neighborhood": "la Dreta de l'Eixample", "name": "Hotel NH Podium", "district": "Eixample", "created": "1996-09-18T00:00:00Z", "cats": ["4 estrelles", "Hotels", "Allotjament"], "address": "Bail\u00e8n 4", "postalCode": "08010", "id": "75990144542"}}, {"geometry": {"type": "Point", "coordinates": [2.1728421666666664, 41.38826995555556]}, "type": "Feature", "id": "75990147608", "properties": {"neighborhood": "el Barri G\u00f2tic", "name": "Hostal Resid\u00e8ncia Fontanella", "district": "Ciutat Vella", "created": "1996-09-18T00:00:00Z", "cats": ["2 estrelles", "Pensions", "Allotjament"], "address": "Via Laietana 0071", "postalCode": "08003", "id": "75990147608"}}, {"geometry": {"type": "Point", "coordinates": [2.153157111111111, 41.40169025555556]}, "type": "Feature", "id": "75990148225", "properties": {"neighborhood": "la Vila de Gr\u00e0cia", "name": "Pensi\u00f3 Sant Medir", "district": "Gr\u00e0cia", "created": "1996-09-18T00:00:00Z", "cats": ["2 estrelles", "Pensions", "Allotjament"], "address": "Gran de Gr\u00e0cia 125", "postalCode": "08012", "id": "75990148225"}}, {"geometry": {"type": "Point", "coordinates": [2.1830636944444444, 41.387281941666664]}, "type": "Feature", "id": "75990149186", "properties": {"neighborhood": "Sant Pere, Santa Caterina i la Ribera", "name": "Hoteles Tur\u00edsticos Unidos S.A.", "district": "Ciutat Vella", "created": "1996-09-18T00:00:00Z", "cats": ["Cadenes i empreses hoteleres", "Allotjament"], "address": "Princesa 0058", "postalCode": "08003", "id": "75990149186"}}, {"geometry": {"type": "Point", "coordinates": [2.175303583333333, 41.38096058055556]}, "type": "Feature", "id": "75990149426", "properties": {"neighborhood": "el Barri G\u00f2tic", "name": "Hotel California", "district": "Ciutat Vella", "created": "1996-09-18T00:00:00Z", "cats": ["2 estrelles", "Hotels", "Allotjament"], "address": "C Rauric 14 bxs", "postalCode": "08002", "id": "75990149426"}}, {"geometry": {"type": "Point", "coordinates": [2.1760003055555552, 41.38250184722222]}, "type": "Feature", "id": "75990150224", "properties": {"neighborhood": "el Barri G\u00f2tic", "name": "Pensi\u00f3 Abdeslam", "district": "Ciutat Vella", "created": "1996-09-18T00:00:00Z", "cats": ["1 estrella", "Pensions", "Allotjament"], "address": "Sant Dom\u00e8nec del Call 3", "postalCode": "08002", "id": "75990150224"}}, {"geometry": {"type": "Point", "coordinates": [2.1685624999999997, 41.38698266944444]}, "type": "Feature", "id": "75990151862", "properties": {"neighborhood": "la Dreta de Eixample", "name": "H10 Catalunya Plaza Boutique Hotel", "district": "Eixample", "created": "1996-09-18T00:00:00Z", "cats": ["3 estrelles", "Hotels", "Allotjament"], "address": "Pl Catalunya 7", "postalCode": "08002", "id": "75990151862"}}, {"geometry": {"type": "Point", "coordinates": [2.109664388888889, 41.383482288888885]}, "type": "Feature", "id": "75990156349", "properties": {"neighborhood": "la Maternitat i Sant Ramon", "name": "Hotel Rey Juan Carlos I", "district": "Les Corts", "created": "1996-09-18T00:00:00Z", "cats": ["5 estrelles", "Hotels", "Allotjament"], "address": "Av Diagonal 661*671", "postalCode": "08028", "id": "75990156349"}}, {"geometry": {"type": "Point", "coordinates": [2.1459687499999998, 41.37298513333334]}, "type": "Feature", "id": "75990156659", "properties": {"neighborhood": "Hostafrancs", "name": "Hotel Azul", "district": "Sants-Montju\u00efc", "created": "1996-09-18T00:00:00Z", "cats": ["3 estrelles", "Hotels", "Allotjament", "Hotels apartaments"], "address": "G.V. Corts Catalanes 327", "postalCode": "08014", "id": "75990156659"}}, {"geometry": {"type": "Point", "coordinates": [2.1781321666666664, 41.38110431388889]}, "type": "Feature", "id": "75990157636", "properties": {"neighborhood": "el Barri G\u00f2tic", "name": "Alberg Palau", "district": "Ciutat Vella", "created": "1996-09-18T00:00:00Z", "cats": ["Albergs juvenils", "Allotjament"], "address": "C Palau 6", "postalCode": "08002", "id": "75990157636"}}, {"geometry": {"type": "Point", "coordinates": [2.174873472222222, 41.379018780555555]}, "type": "Feature", "id": "75990161269", "properties": {"neighborhood": "el Raval", "name": "Hotel Ramblas", "district": "Ciutat Vella", "created": "1996-09-18T00:00:00Z", "cats": ["3 estrelles", "Hotels", "Allotjament"], "address": "la Rambla 33", "postalCode": "08002", "id": "75990161269"}}, {"geometry": {"type": "Point", "coordinates": [2.1739986388888886, 41.37892538055556]}, "type": "Feature", "id": "75990161626", "properties": {"neighborhood": "el Raval", "name": "Hotel Gaud\u00ed", "district": "Ciutat Vella", "created": "1996-09-18T00:00:00Z", "cats": ["3 estrelles", "Hotels", "Allotjament"], "address": "C Nou de la Rambla 12", "postalCode": "08001", "id": "75990161626"}}, {"geometry": {"type": "Point", "coordinates": [2.175058055555555, 41.38109735]}, "type": "Feature", "id": "75990163036", "properties": {"neighborhood": "el Barri G\u00f2tic", "name": "Adagio Hotel", "district": "Ciutat Vella", "created": "1996-09-18T00:00:00Z", "cats": ["2 estrelles", "Hotels", "Allotjament"], "address": "Ferran 21", "postalCode": "08002", "id": "75990163036"}}, {"geometry": {"type": "Point", "coordinates": [2.173156833333333, 41.38091913611111]}, "type": "Feature", "id": "75990163267", "properties": {"neighborhood": "el Raval", "name": "Hostal Mare Nostrum", "district": "Ciutat Vella", "created": "1996-09-18T00:00:00Z", "cats": ["2 estrelles", "Pensions", "Allotjament"], "address": "Sant Pau 0002", "postalCode": "08001", "id": "75990163267"}}, {"geometry": {"type": "Point", "coordinates": [2.1618399722222224, 41.38426069166667]}, "type": "Feature", "id": "75990163984", "properties": {"neighborhood": "Sant Antoni", "name": "Hotel Caledonian", "district": "Eixample", "created": "1996-09-18T00:00:00Z", "cats": ["3 estrelles", "Hotels", "Allotjament"], "address": "G.V. Corts Catalanes 574", "postalCode": "08011", "id": "75990163984"}}, {"geometry": {"type": "Point", "coordinates": [2.175694861111111, 41.38226308611111]}, "type": "Feature", "id": "75990165895", "properties": {"neighborhood": "el Barri G\u00f2tic", "name": "Hotel Call", "district": "Ciutat Vella", "created": "1996-09-18T00:00:00Z", "cats": ["1 estrella", "Hotels", "Allotjament"], "address": "C Arc Sant Ramon del Call 4", "postalCode": "08002", "id": "75990165895"}}, {"geometry": {"type": "Point", "coordinates": [2.179287861111111, 41.38018633611111]}, "type": "Feature", "id": "75990165989", "properties": {"neighborhood": "el Barri G\u00f2tic", "name": "Pensi\u00f3 Albi", "district": "Ciutat Vella", "created": "1996-09-18T00:00:00Z", "cats": ["1 estrella", "Pensions", "Allotjament"], "address": "Aviny\u00f3 0058 Principal", "postalCode": "08002", "id": "75990165989"}}, {"geometry": {"type": "Point", "coordinates": [2.1278266666666665, 41.37188142222222]}, "type": "Feature", "id": "75990166212", "properties": {"neighborhood": "Sants - Badal", "name": "Pensi\u00f3 Resid\u00e8ncia Carlos", "district": "Sants-Montju\u00efc", "created": "1996-09-18T00:00:00Z", "cats": ["1 estrella", "Pensions", "Allotjament"], "address": "Canalejas 82", "postalCode": "08028", "id": "75990166212"}}, {"geometry": {"type": "Point", "coordinates": [2.1498266944444446, 41.376946044444445]}, "type": "Feature", "id": "75990167146", "properties": {"neighborhood": "la Nova Esquerra de l'Eixample", "name": "Hotel \u00d3nix Fira", "district": "Eixample", "created": "1996-09-18T00:00:00Z", "cats": ["3 estrelles", "Hotels", "Allotjament"], "address": "Llan\u00e7a 30", "postalCode": "08015", "id": "75990167146"}}, {"geometry": {"type": "Point", "coordinates": [2.175067527777778, 41.37714518055556]}, "type": "Feature", "id": "75990167402", "properties": {"neighborhood": "el Raval", "name": "Hostal Resid\u00e8ncia Florinda", "district": "Ciutat Vella", "created": "1996-09-18T00:00:00Z", "cats": ["1 estrella", "Pensions", "Allotjament"], "address": "Montserrat 13 04", "postalCode": "08001", "id": "75990167402"}}, {"geometry": {"type": "Point", "coordinates": [2.170015583333333, 41.382974966666666]}, "type": "Feature", "id": "75990167587", "properties": {"neighborhood": "el Raval", "name": "Hotel Ambassador", "district": "Ciutat Vella", "created": "1996-09-18T00:00:00Z", "cats": ["4 estrelles", "Hotels", "Allotjament"], "address": "C Pintor Fortuny 13", "postalCode": "08001", "id": "75990167587"}}, {"geometry": {"type": "Point", "coordinates": [2.1405563055555556, 41.383170755555554]}, "type": "Feature", "id": "75990168466", "properties": {"neighborhood": "Sants", "name": "Hotel Medium City", "district": "Sants-Montju\u00efc", "created": "1996-09-18T00:00:00Z", "cats": ["4 estrelles", "Hotels", "Allotjament"], "address": "Nicaragua 47", "postalCode": "08029", "id": "75990168466"}}, {"geometry": {"type": "Point", "coordinates": [2.171468611111111, 41.37771860833333]}, "type": "Feature", "id": "75990169806", "properties": {"neighborhood": "el Raval", "name": "Hotel Barbar\u00e0", "district": "Ciutat Vella", "created": "1996-09-18T00:00:00Z", "cats": ["1 estrella", "Hotels", "Allotjament"], "address": "C Marqu\u00e8s de Barber\u00e0 22", "postalCode": "08001", "id": "75990169806"}}, {"geometry": {"type": "Point", "coordinates": [2.1742021388888886, 41.37978293333333]}, "type": "Feature", "id": "75990171211", "properties": {"neighborhood": "el Raval", "name": "Hotel Husa Oriente", "district": "Ciutat Vella", "created": "1996-09-18T00:00:00Z", "cats": ["3 estrelles", "Hotels", "Allotjament"], "address": "C la Rambla 45", "postalCode": "08002", "id": "75990171211"}}, {"geometry": {"type": "Point", "coordinates": [2.136106972222222, 41.40547659722222]}, "type": "Feature", "id": "75990171354", "properties": {"neighborhood": "Sant Gervasi - la Bonanova", "name": "Aparthotel Bonanova Suite", "district": "Sarri\u00e0-Sant Gervasi", "created": "1996-09-18T00:00:00Z", "cats": ["3 estrelles", "Hotels", "Allotjament", "Hotels apartaments"], "address": "C Bisbe Sivilla 7", "postalCode": "08022", "id": "75990171354"}}, {"geometry": {"type": "Point", "coordinates": [2.1716485, 41.38548975277778]}, "type": "Feature", "id": "75990173005", "properties": {"neighborhood": "el Barri G\u00f2tic", "name": "Hotel Cort\u00e9s", "district": "Ciutat Vella", "created": "1996-09-18T00:00:00Z", "cats": ["2 estrelles", "Hotels", "Allotjament"], "address": "Santa Anna 25", "postalCode": "08002", "id": "75990173005"}}, {"geometry": {"type": "Point", "coordinates": [2.1727010555555553, 41.38103774444445]}, "type": "Feature", "id": "75990173007", "properties": {"neighborhood": "el Raval", "name": "Hotel Moderno", "district": "Ciutat Vella", "created": "1996-09-18T00:00:00Z", "cats": ["3 estrelles", "Hotels", "Allotjament"], "address": "Hospital 11", "postalCode": "08001", "id": "75990173007"}}, {"geometry": {"type": "Point", "coordinates": [2.1351703888888887, 41.40428758611111]}, "type": "Feature", "id": "75990173238", "properties": {"neighborhood": "Sant Gervasi - la Bonanova", "name": "Resid\u00e8ncia Estudiants C.R. Bonanova", "district": "Sarri\u00e0-Sant Gervasi", "created": "1996-09-18T00:00:00Z", "cats": ["Resid\u00e8ncies d'estudiants", "Allotjament"], "address": "C Camp 75", "postalCode": "08022", "id": "75990173238"}}, {"geometry": {"type": "Point", "coordinates": [2.185829583333333, 41.408145169444445]}, "type": "Feature", "id": "75990175163", "properties": {"neighborhood": "el Camp de l'Arpa del Clot", "name": "Hotel  Catalonia  Alb\u00e9niz", "district": "Sant Mart\u00ed", "created": "1996-09-18T00:00:00Z", "cats": ["3 estrelles", "Hotels", "Allotjament"], "address": "C Arag\u00f3 591", "postalCode": "08026", "id": "75990175163"}}, {"geometry": {"type": "Point", "coordinates": [2.1684271944444444, 41.38637345833333]}, "type": "Feature", "id": "75990175176", "properties": {"neighborhood": "la Dreta de l'Eixample", "name": "Hotel Catalonia Plaza Catalu\u00f1a", "district": "Eixample", "created": "1996-09-18T00:00:00Z", "cats": ["4 estrelles", "Hotels", "Allotjament"], "address": "Bergara 11", "postalCode": "08002", "id": "75990175176"}}, {"geometry": {"type": "Point", "coordinates": [2.137009583333333, 41.40307777222222]}, "type": "Feature", "id": "75990176007", "properties": {"neighborhood": "Sant Gervasi - la Bonanova", "name": "Hotel  Catalonia  Barcelona 505", "district": "Sarri\u00e0-Sant Gervasi", "created": "1996-09-18T00:00:00Z", "cats": ["4 estrelles", "Hotels", "Allotjament"], "address": "Muntaner 505", "postalCode": "08022", "id": "75990176007"}}, {"geometry": {"type": "Point", "coordinates": [2.1641083055555557, 41.393689530555555]}, "type": "Feature", "id": "75990176574", "properties": {"neighborhood": "la Dreta de l'Eixample", "name": "Majestic Hotel &amp; Spa Barcelona", "district": "Eixample", "created": "1996-09-18T00:00:00Z", "cats": ["5 estrelles", "Hotels", "Allotjament"], "address": "Pg Gr\u00e0cia 68", "postalCode": "08007", "id": "75990176574"}}, {"geometry": {"type": "Point", "coordinates": [2.1188112222222224, 41.39976580277778]}, "type": "Feature", "id": "75990177300", "properties": {"neighborhood": "Sarri\u00e0", "name": "Resid\u00e8ncia Alberg Estudio", "district": "Sarri\u00e0-Sant Gervasi", "created": "1996-09-18T00:00:00Z", "cats": ["Albergs juvenils", "Allotjament", "Resid\u00e8ncies d'estudiants"], "address": "C Duquessa d'Orleans 56", "postalCode": "08034", "id": "75990177300"}}, {"geometry": {"type": "Point", "coordinates": [2.141750611111111, 41.39090273888889]}, "type": "Feature", "id": "75990209975", "properties": {"neighborhood": "les Corts", "name": "Hotel Meli\u00e1 Barcelona Sarri\u00e0", "district": "Les Corts", "created": "1996-09-18T00:00:00Z", "cats": ["5 estrelles", "Hotels", "Allotjament"], "address": "Av Sarri\u00e0 50", "postalCode": "08029", "id": "75990209975"}}, {"geometry": {"type": "Point", "coordinates": [2.166066861111111, 41.38979653333333]}, "type": "Feature", "id": "75990210196", "properties": {"neighborhood": "la Dreta de l'Eixample", "name": "Hotel Eurostars Cristal Palace", "district": "Eixample", "created": "1996-09-18T00:00:00Z", "cats": ["4 estrelles", "Hotels", "Allotjament"], "address": "Diputaci\u00f3 257", "postalCode": "08007", "id": "75990210196"}}, {"geometry": {"type": "Point", "coordinates": [2.1742441388888887, 41.381537272222225]}, "type": "Feature", "id": "75990210610", "properties": {"neighborhood": "el Barri G\u00f2tic", "name": "Hotel Condal", "district": "Ciutat Vella", "created": "1996-09-18T00:00:00Z", "cats": ["2 estrelles", "Hotels", "Allotjament"], "address": "C Boqueria 23", "postalCode": "08002", "id": "75990210610"}}, {"geometry": {"type": "Point", "coordinates": [2.185030111111111, 41.38499712777778]}, "type": "Feature", "id": "75990210627", "properties": {"neighborhood": "Sant Pere, Santa Caterina i la Ribera", "name": "Hostal Resid\u00e8ncia Nuevo Col\u00f3n", "district": "Ciutat Vella", "created": "1996-09-18T00:00:00Z", "cats": ["1 estrella", "Pensions", "Allotjament"], "address": "Av Marqu\u00e8s de l'Argentera 19 01 03", "postalCode": "08003", "id": "75990210627"}}, {"geometry": {"type": "Point", "coordinates": [2.175267611111111, 41.379704419444444]}, "type": "Feature", "id": "75990210632", "properties": {"neighborhood": "el Barri G\u00f2tic", "name": "Alberg Kabul", "district": "Ciutat Vella", "created": "1996-09-18T00:00:00Z", "cats": ["Albergs juvenils", "Allotjament"], "address": "Pl Reial 17", "postalCode": "08002", "id": "75990210632"}}, {"geometry": {"type": "Point", "coordinates": [2.1468683888888886, 41.394913458333335]}, "type": "Feature", "id": "75990217489", "properties": {"neighborhood": "Sant Gervasi - Galvany", "name": "Hotel Zenit Barcelona", "district": "Sarri\u00e0-Sant Gervasi", "created": "1996-09-18T00:00:00Z", "cats": ["3 estrelles", "Hotels", "Allotjament"], "address": "Santal\u00f3 8", "postalCode": "08021", "id": "75990217489"}}, {"geometry": {"type": "Point", "coordinates": [2.178302111111111, 41.383787444444444]}, "type": "Feature", "id": "75990217491", "properties": {"neighborhood": "el Barri G\u00f2tic", "name": "Hotel Suizo", "district": "Ciutat Vella", "created": "1996-09-18T00:00:00Z", "cats": ["3 estrelles", "Hotels", "Allotjament"], "address": "Pl \u00c0ngel 12", "postalCode": "08002", "id": "75990217491"}}, {"geometry": {"type": "Point", "coordinates": [2.16370725, 41.384657125]}, "type": "Feature", "id": "75990217493", "properties": {"neighborhood": "Sant Antoni", "name": "Hostal Delfos", "district": "Eixample", "created": "1996-09-18T00:00:00Z", "cats": ["2 estrelles", "Pensions", "Allotjament"], "address": "Rda Sant Antoni 0061", "postalCode": "08011", "id": "75990217493"}}, {"geometry": {"type": "Point", "coordinates": [2.1624890555555556, 41.38245346111111]}, "type": "Feature", "id": "75990217495", "properties": {"neighborhood": "Sant Antoni", "name": "Hostal Centric", "district": "Eixample", "created": "1996-09-18T00:00:00Z", "cats": ["2 estrelles", "Pensions", "Allotjament"], "address": "Casanova 13", "postalCode": "08011", "id": "75990217495"}}, {"geometry": {"type": "Point", "coordinates": [2.1779831388888886, 41.37751803333333]}, "type": "Feature", "id": "75990217496", "properties": {"neighborhood": "el Barri G\u00f2tic", "name": "Hostal Resid\u00e8ncia Nilo", "district": "Ciutat Vella", "created": "1996-09-18T00:00:00Z", "cats": ["1 estrella", "Pensions", "Allotjament"], "address": "Josep Anselm Clav\u00e9 17", "postalCode": "08002", "id": "75990217496"}}, {"geometry": {"type": "Point", "coordinates": [2.1725835555555553, 41.388076383333335]}, "type": "Feature", "id": "75990225996", "properties": {"neighborhood": "el Barri G\u00f2tic", "name": "Hostal Plaza", "district": "Ciutat Vella", "created": "1996-09-18T00:00:00Z", "cats": ["2 estrelles", "Pensions", "Allotjament"], "address": "Fontanella 18", "postalCode": "08010", "id": "75990225996"}}, {"geometry": {"type": "Point", "coordinates": [2.1458514166666665, 41.38187905555556]}, "type": "Feature", "id": "75990225997", "properties": {"neighborhood": "la Nova Esquerra de l'Eixample", "name": "Hotel Catalonia Roma", "district": "Eixample", "created": "1996-09-18T00:00:00Z", "cats": ["3 estrelles", "Hotels", "Allotjament"], "address": "Av Roma 31", "postalCode": "08029", "id": "75990225997"}}, {"geometry": {"type": "Point", "coordinates": [2.148972833333333, 41.39410965277778]}, "type": "Feature", "id": "75990225999", "properties": {"neighborhood": "Sant Gervasi - Galvany", "name": "Hotel Hesperia Presidente", "district": "Sarri\u00e0-Sant Gervasi", "created": "1996-09-18T00:00:00Z", "cats": ["4 estrelles", "Hotels", "Allotjament"], "address": "Av Diagonal 570", "postalCode": "08021", "id": "75990225999"}}, {"geometry": {"type": "Point", "coordinates": [2.1709075833333333, 41.38387711666667]}, "type": "Feature", "id": "75990231016", "properties": {"neighborhood": "el Raval", "name": "Hotel Le Meridien Barcelona", "district": "Ciutat Vella", "created": "1996-09-18T00:00:00Z", "cats": ["5 estrelles", "Hotels", "Allotjament"], "address": "la Rambla 111", "postalCode": "08002", "id": "75990231016"}}, {"geometry": {"type": "Point", "coordinates": [2.154797611111111, 41.386147316666666]}, "type": "Feature", "id": "75990231017", "properties": {"neighborhood": "l'Antiga Esquerra de l'Eixample", "name": "Hotel Century Park", "district": "Eixample", "created": "1996-09-18T00:00:00Z", "cats": ["3 estrelles", "Hotels", "Allotjament"], "address": "C Val\u00e8ncia 154", "postalCode": "08011", "id": "75990231017"}}, {"geometry": {"type": "Point", "coordinates": [2.146400388888889, 41.397511030555556]}, "type": "Feature", "id": "75990242327", "properties": {"neighborhood": "Sant Gervasi - Galvany", "name": "Hostal Valls", "district": "Sarri\u00e0-Sant Gervasi", "created": "1996-09-18T00:00:00Z", "cats": ["1 estrella", "Pensions", "Allotjament"], "address": "Laforja 0082", "postalCode": "08021", "id": "75990242327"}}, {"geometry": {"type": "Point", "coordinates": [2.1294894444444443, 41.38623514166667]}, "type": "Feature", "id": "75990242330", "properties": {"neighborhood": "les Corts", "name": "Aparthotel Atenea", "district": "Les Corts", "created": "1996-09-18T00:00:00Z", "cats": ["4 estrelles", "Hotels", "Allotjament", "Hotels apartaments"], "address": "C Joan G\u00fcell 207*211", "postalCode": "08028", "id": "75990242330"}}, {"geometry": {"type": "Point", "coordinates": [2.1483825555555556, 41.37542960277778]}, "type": "Feature", "id": "75990262564", "properties": {"neighborhood": "Hostafrancs", "name": "Hotel  Catalonia  Barcelona  Plaza", "district": "Sants-Montju\u00efc", "created": "1996-09-18T00:00:00Z", "cats": ["4 estrelles", "Hotels", "Allotjament"], "address": "Pl Espanya 6*8", "postalCode": "08004", "id": "75990262564"}}, {"geometry": {"type": "Point", "coordinates": [2.196555805555555, 41.38708161388889]}, "type": "Feature", "id": "75990265200", "properties": {"neighborhood": "la Barceloneta", "name": "Hotel Arts Barcelona", "district": "Ciutat Vella", "created": "1996-09-18T00:00:00Z", "cats": ["5 estrelles", "Hotels", "Allotjament"], "address": "C Marina 19*21", "postalCode": "08005", "id": "75990265200"}}, {"geometry": {"type": "Point", "coordinates": [2.145221861111111, 41.39997657777778]}, "type": "Feature", "id": "75990271597", "properties": {"neighborhood": "Sant Gervasi - Galvany", "name": "Hotel Mercure Alberta Barcelona", "district": "Sarri\u00e0-Sant Gervasi", "created": "1996-09-18T00:00:00Z", "cats": ["3 estrelles", "Hotels", "Allotjament"], "address": "Via Augusta 127", "postalCode": "08006", "id": "75990271597"}}, {"geometry": {"type": "Point", "coordinates": [2.170308222222222, 41.374765075]}, "type": "Feature", "id": "75990271849", "properties": {"neighborhood": "el Poble Sec", "name": "Hotel Tryp  Apolo", "district": "Sants-Montju\u00efc", "created": "1996-09-18T00:00:00Z", "cats": ["4 estrelles", "Hotels", "Allotjament"], "address": "Av Paral.lel 57*59", "postalCode": "08004", "id": "75990271849"}}, {"geometry": {"type": "Point", "coordinates": [2.1735747777777776, 41.381093433333334]}, "type": "Feature", "id": "75990272390", "properties": {"neighborhood": "el Barri G\u00f2tic", "name": "Hotel Husa Internacional", "district": "Ciutat Vella", "created": "1996-09-18T00:00:00Z", "cats": ["1 estrella", "Hotels", "Allotjament"], "address": "C la Rambla 78", "postalCode": "08002", "id": "75990272390"}}, {"geometry": {"type": "Point", "coordinates": [2.1865620277777778, 41.410967069444446]}, "type": "Feature", "id": "75990272392", "properties": {"neighborhood": "el Camp de l'Arpa del Clot", "name": "Hotel  Catalonia Atenas", "district": "Sant Mart\u00ed", "created": "1996-09-18T00:00:00Z", "cats": ["4 estrelles", "Hotels", "Allotjament"], "address": "Av Meridiana 151", "postalCode": "08026", "id": "75990272392"}}, {"geometry": {"type": "Point", "coordinates": [2.1353775555555554, 41.389715055555556]}, "type": "Feature", "id": "75990272396", "properties": {"neighborhood": "les Corts", "name": "Hotel l'Illa", "district": "Les Corts", "created": "1996-09-18T00:00:00Z", "cats": ["4 estrelles", "Hotels", "Allotjament"], "address": "Av Diagonal 555", "postalCode": "08029", "id": "75990272396"}}, {"geometry": {"type": "Point", "coordinates": [2.1573511944444443, 41.40189711944444]}, "type": "Feature", "id": "75990272399", "properties": {"neighborhood": "la Vila de Gr\u00e0cia", "name": "Hostal Resid\u00e8ncia Alberdi", "district": "Gr\u00e0cia", "created": "1996-09-18T00:00:00Z", "cats": ["1 estrella", "Pensions", "Allotjament"], "address": "C Torrent de l'Olla 95", "postalCode": "08012", "id": "75990272399"}}, {"geometry": {"type": "Point", "coordinates": [2.174627861111111, 41.37896795555556]}, "type": "Feature", "id": "75990272400", "properties": {"neighborhood": "el Raval", "name": "Hostal Resid\u00e8ncia Benidorm", "district": "Ciutat Vella", "created": "1996-09-18T00:00:00Z", "cats": ["2 estrelles", "Pensions", "Allotjament"], "address": "la Rambla 0037", "postalCode": "08002", "id": "75990272400"}}, {"geometry": {"type": "Point", "coordinates": [2.135428722222222, 41.37503146388889]}, "type": "Feature", "id": "75990272404", "properties": {"neighborhood": "Sants", "name": "Hotel Resid\u00e8ncia Sants", "district": "Sants-Montju\u00efc", "created": "1996-09-18T00:00:00Z", "cats": ["1 estrella", "Pensions", "Allotjament"], "address": "Antoni de Capmany 82", "postalCode": "08014", "id": "75990272404"}}, {"geometry": {"type": "Point", "coordinates": [2.174158861111111, 41.37777098888889]}, "type": "Feature", "id": "75990272409", "properties": {"neighborhood": "el Raval", "name": "Pensi\u00f3 Solarium", "district": "Ciutat Vella", "created": "1996-09-18T00:00:00Z", "cats": ["1 estrella", "Pensions", "Allotjament"], "address": "Gu\u00e0rdia 0013", "postalCode": "08001", "id": "75990272409"}}, {"geometry": {"type": "Point", "coordinates": [2.1700441388888887, 41.380288755555554]}, "type": "Feature", "id": "75990272410", "properties": {"neighborhood": "el Raval", "name": "Pensi\u00f3 Alba", "district": "Ciutat Vella", "created": "1996-09-18T00:00:00Z", "cats": ["1 estrella", "Pensions", "Allotjament"], "address": "Hospital 0083 01 02", "postalCode": "08001", "id": "75990272410"}}, {"geometry": {"type": "Point", "coordinates": [2.1720854444444444, 41.38277516111111]},