{"type": "FeatureCollection", "features": [{"geometry": {"type": "Point", "coordinates": [2.202341638888889, 41.44552013333333]}, "type": "Feature", "id": "297122514", "properties": {"neighborhood": "el Bon Pastor", "name": "Punt Verd de Zona - Deixalleria Sant Andreu", "district": "Sant Andreu", "created": "2000-10-23T00:00:00Z", "cats": ["Deixalleries - Punt verd de ciutat", "Medi ambient"], "address": "C Caracas 46", "postalCode": "08030", "id": "297122514"}}, {"geometry": {"type": "Point", "coordinates": [2.10824375, 41.38884918888889]}, "type": "Feature", "id": "297122918", "properties": {"neighborhood": "Pedralbes", "name": "Punt Verd de Zona - Deixalleria de Les Corts-Pedralbes", "district": "Les Corts", "created": "2000-10-23T00:00:00Z", "cats": ["Deixalleries - Punt verd de ciutat", "Medi ambient"], "address": "Av Esplugues 58*60", "postalCode": "08034", "id": "297122918"}}, {"geometry": {"type": "Point", "coordinates": [2.186013083333333, 41.46499263055556]}, "type": "Feature", "id": "297123401", "properties": {"neighborhood": "Vallbona", "name": "Punt Verd de Zona - Deixalleria de Vallbona", "district": "Nou Barris", "created": "2000-10-23T00:00:00Z", "cats": ["Deixalleries - Punt verd de ciutat", "Medi ambient"], "address": "Castelladral 6*10", "postalCode": "08033", "id": "297123401"}}, {"geometry": {"type": "Point", "coordinates": [2.13726275, 41.39330316666667]}, "type": "Feature", "id": "70162132", "properties": {"neighborhood": "Sant Gervasi - Galvany", "name": "Dip\u00f2sit d'aig\u00fces pluvials *Bori i Fontest\u00e0", "district": "Sarri\u00e0-Sant Gervasi", "created": "2000-03-10T00:00:00Z", "cats": ["Dip\u00f2sits d'aig\u00fces pluvials", "Medi ambient"], "address": "Bori i Fontest\u00e0 32", "postalCode": "08017", "id": "70162132"}}, {"geometry": {"type": "Point", "coordinates": [2.1163368333333334, 41.382398025]}, "type": "Feature", "id": "70162504", "properties": {"neighborhood": "la Maternitat i Sant Ramon", "name": "Dip\u00f2sit d'aig\u00fces pluvials *Baldiri Reixac", "district": "Les Corts", "created": "2000-03-10T00:00:00Z", "cats": ["Dip\u00f2sits d'aig\u00fces pluvials", "Medi ambient"], "address": "Baldiri Reixac 1", "postalCode": "08028", "id": "70162504"}}, {"geometry": {"type": "Point", "coordinates": [2.1563915277777777, 41.403629699999996]}, "type": "Feature", "id": "75990029216", "properties": {"neighborhood": "la Vila de Gr\u00e0cia", "name": "Punt Verd de Barri Col\u00b7laborador - Recuperaci\u00f3 per al Reciclatge Tabuenca", "district": "Gr\u00e0cia", "created": "1996-09-17T00:00:00Z", "cats": ["Punt verd col\u00b7laborador", "Medi ambient"], "address": "C Guilleries 24 bxs 2a", "postalCode": "08012", "id": "75990029216"}}, {"geometry": {"type": "Point", "coordinates": [2.1788813888888887, 41.38781923888889]}, "type": "Feature", "id": "75990068722", "properties": {"neighborhood": "Sant Pere, Santa Caterina i la Ribera", "name": "Punt Verd de Barri Col\u00b7laborador-Recuperaci\u00f3 per al Reciclatge Can Basilio", "district": "Ciutat Vella", "created": "1996-09-18T00:00:00Z", "cats": ["Punt verd col\u00b7laborador", "Medi ambient"], "address": "C Jaume Giralt 49 bxs", "postalCode": "08003", "id": "75990068722"}}, {"geometry": {"type": "Point", "coordinates": [2.1361868611111112, 41.41623887777778]}, "type": "Feature", "id": "94075112530", "properties": {"neighborhood": "Vallcarca i els Penitents", "name": "Punt Verd de Zona - Deixalleria de Collserola", "district": "Gr\u00e0cia", "created": "1994-03-16T00:00:00Z", "cats": ["Deixalleries - Punt verd de ciutat", "Medi ambient"], "address": "C Collserola 2", "postalCode": "08035", "id": "94075112530"}}, {"geometry": {"type": "Point", "coordinates": [2.1397920555555556, 41.35502710277778]}, "type": "Feature", "id": "98162102313", "properties": {"neighborhood": "la Marina del Prat Vermell", "name": "Punt Verd de Zona - Deixalleria de Montju\u00efc", "district": "Sants-Montju\u00efc", "created": "1998-06-11T00:00:00Z", "cats": ["Deixalleries - Punt verd de ciutat", "Medi ambient"], "address": "Foc 56", "postalCode": "08038", "id": "98162102313"}}, {"geometry": {"type": "Point", "coordinates": [2.1482306666666666, 41.38792821111111]}, "type": "Feature", "id": "99050094556", "properties": {"neighborhood": "la Nova Esquerra de l'Eixample", "name": "Dip\u00f2sit d'aig\u00fces pluvials *Viladomat", "district": "Eixample", "created": "1999-02-19T00:00:00Z", "cats": ["Dip\u00f2sits d'aig\u00fces pluvials", "Medi ambient"], "address": "Viladomat 282", "postalCode": "08029", "id": "99050094556"}}, {"geometry": {"type": "Point", "coordinates": [2.1533201666666666, 41.431413625]}, "type": "Feature", "id": "99138133135", "properties": {"neighborhood": "la Vall d'Hebron", "name": "Punt Verd de Zona - Deixalleria Vall d'Hebron", "district": "Horta-Guinard\u00f3", "created": "1999-05-18T00:00:00Z", "cats": ["Deixalleries - Punt verd de ciutat", "Medi ambient"], "address": "C Jorge Manrique 2", "postalCode": "08035", "id": "99138133135"}}, {"geometry": {"type": "Point", "coordinates": [2.077791166666667, 41.429862005555556]}, "type": "Feature", "id": "99151103536", "properties": {"neighborhood": "Vallvidrera, el Tibidabo i les Planes", "name": "Consorci del Parc Natural de la Serra de Collserola", "district": "Sarri\u00e0-Sant Gervasi", "created": "1999-05-31T00:00:00Z", "cats": ["Estacions biol\u00f2giques", "Medi ambient"], "address": "Cam\u00ed Can Balasch 85", "postalCode": "08017", "id": "99151103536"}}, {"geometry": {"type": "Point", "coordinates": [2.1895537777777774, 41.40707599444444]}, "type": "Feature", "id": "99400027263", "properties": {"neighborhood": "el Clot", "name": "Punt Verd de Barri - Clot", "district": "Sant Mart\u00ed", "created": "2002-11-18T10:03:00Z", "cats": ["Punt verd de barri", "Medi ambient"], "address": "C Escultors Claper\u00f3s 51 bxs", "postalCode": "08018", "id": "99400027263"}}, {"geometry": {"type": "Point", "coordinates": [2.1017758055555555, 41.41602225555555]}, "type": "Feature", "id": "99400028442", "properties": {"neighborhood": "Vallvidrera, el Tibidabo i les Planes", "name": "Punt Verd de Barri - Vallvidrera", "district": "Sarri\u00e0-Sant Gervasi", "created": "2002-11-29T10:14:00Z", "cats": ["Punt verd de barri", "Medi ambient"], "address": "C Reis Cat\u00f2lics 40", "postalCode": "08017", "id": "99400028442"}}, {"geometry": {"type": "Point", "coordinates": [2.1283889722222225, 41.380644600000004]}, "type": "Feature", "id": "99400034570", "properties": {"neighborhood": "la Maternitat i Sant Ramon", "name": "Dip\u00f2sit d'aig\u00fces pluvials *Jardins dels Doctors Dolsa", "district": "Les Corts", "created": "2003-02-25T12:05:00Z", "cats": ["Dip\u00f2sits d'aig\u00fces pluvials", "Medi ambient"], "address": "G.V. Carles III 25", "postalCode": "08028", "id": "99400034570"}}, {"geometry": {"type": "Point", "coordinates": [2.1757318888888886, 41.40501550277778]}, "type": "Feature", "id": "99400035494", "properties": {"neighborhood": "la Sagrada Fam\u00edlia", "name": "Punt Verd de Barri - Sagrada Fam\u00edlia", "district": "Eixample", "created": "2003-03-11T14:06:00Z", "cats": ["Punt verd de barri", "Medi ambient"], "address": "C Lepant 281*283", "postalCode": "08013", "id": "99400035494"}}, {"geometry": {"type": "Point", "coordinates": [2.1887704166666664, 41.42825268611111]}, "type": "Feature", "id": "99400035497", "properties": {"neighborhood": "Sant Andreu", "name": "Punt Verd de Barri - Sant Andreu", "district": "Sant Andreu", "created": "2003-03-11T14:23:00Z", "cats": ["Punt verd de barri", "Medi ambient"], "address": "C Rovira i Virgili 14", "postalCode": "08030", "id": "99400035497"}}, {"geometry": {"type": "Point", "coordinates": [2.1668822777777774, 41.43621409444444]}, "type": "Feature", "id": "99400035611", "properties": {"neighborhood": "Can Peguera", "name": "Dip\u00f2sit d'aig\u00fces pluvials *Parc Central de Nou Barris", "district": "Nou Barris", "created": "2003-03-13T10:29:00Z", "cats": ["Dip\u00f2sits d'aig\u00fces pluvials", "Medi ambient"], "address": "C Vilalba dels Arcs 1", "postalCode": "08042", "id": "99400035611"}}, {"geometry": {"type": "Point", "coordinates": [2.1728396666666665, 41.37429326666667]}, "type": "Feature", "id": "99400038444", "properties": {"neighborhood": "el Poble-sec", "name": "Punt Verd de Barri - Poble-sec", "district": "Sants-Montju\u00efc", "created": "2003-04-29T10:07:00Z", "cats": ["Punt verd de barri", "Medi ambient"], "address": "C Palaud\u00e0ries 12", "postalCode": "08004", "id": "99400038444"}}, {"geometry": {"type": "Point", "coordinates": [2.172698583333333, 41.41451107222222]}, "type": "Feature", "id": "99400038990", "properties": {"neighborhood": "el Guinard\u00f3", "name": "Punt Verd de Barri - Horta-Guinard\u00f3", "district": "Horta-Guinard\u00f3", "created": "2003-05-07T10:10:00Z", "cats": ["Punt verd de barri", "Medi ambient"], "address": "C Mas Casanovas 74", "postalCode": "08041", "id": "99400038990"}}, {"geometry": {"type": "Point", "coordinates": [2.1534346388888888, 41.399098027777775]}, "type": "Feature", "id": "99400046207", "properties": {"neighborhood": "la Vila de Gr\u00e0cia", "name": "Punt Verd de Barri - Gal\u00b7la Plac\u00eddia", "district": "Gr\u00e0cia", "created": "2003-06-18T09:36:00Z", "cats": ["Punt verd de barri", "Medi ambient"], "address": "Pl Gal.la Plac\u00eddia 12", "postalCode": "08006", "id": "99400046207"}}, {"geometry": {"type": "Point", "coordinates": [2.1055086944444446, 41.3889078]}, "type": "Feature", "id": "99400071223", "properties": {"neighborhood": "Pedralbes", "name": "Contenidor de Sal *Torrent Roses - Ardena", "district": "Les Corts", "created": "2004-01-12T14:20:00Z", "cats": ["Contenidors de sal", "Medi ambient"], "address": "C Torrent de les Roses 1", "postalCode": "08034", "id": "99400071223"}}, {"geometry": {"type": "Point", "coordinates": [2.147750916666667, 41.376032280555556]}, "type": "Feature", "id": "99400073159", "properties": {"neighborhood": "Hostafrancs", "name": "Dip\u00f2sit d'aig\u00fces pluvials *Parc Joan Mir\u00f3", "district": "Sants-Montju\u00efc", "created": "2004-02-06T14:00:00Z", "cats": ["Dip\u00f2sits d'aig\u00fces pluvials", "Medi ambient"], "address": "C Diputaci\u00f3 7", "postalCode": "08014", "id": "99400073159"}}, {"geometry": {"type": "Point", "coordinates": [2.1839291666666663, 41.44297589722222]}, "type": "Feature", "id": "99400074645", "properties": {"neighborhood": "la Prosperitat", "name": "Punt Verd M\u00f2bil *Pla\u00e7a Verda de la Prosperitat", "district": "Nou Barris", "created": "2004-02-26T18:11:00Z", "cats": ["Punt verd m\u00f2bil", "Medi ambient"], "address": "C Tiss\u00f3 18", "postalCode": "08016", "id": "99400074645"}}, {"geometry": {"type": "Point", "coordinates": [2.1331548055555554, 41.39396867777778]}, "type": "Feature", "id": "99400074649", "properties": {"neighborhood": "les Tres Torres", "name": "Punt Verd M\u00f2bil *Ronda General Mitre", "district": "Sarri\u00e0-Sant Gervasi", "created": "2004-02-26T18:23:00Z", "cats": ["Punt verd m\u00f2bil", "Medi ambient"], "address": "Rda General Mitre 28*36", "postalCode": "08017", "id": "99400074649"}}, {"geometry": {"type": "Point", "coordinates": [2.1906964999999996, 41.44966494722222]}, "type": "Feature", "id": "99400074651", "properties": {"neighborhood": "la Trinitat Vella", "name": "Punt Verd M\u00f2bil *Pla\u00e7a Trinitat", "district": "Sant Andreu", "created": "2004-02-26T18:29:00Z", "cats": ["Punt verd m\u00f2bil", "Medi ambient"], "address": "Pl Trinitat 8", "postalCode": "08033", "id": "99400074651"}}, {"geometry": {"type": "Point", "coordinates": [2.142434333333333, 41.42403196944444]}, "type": "Feature", "id": "99400074652", "properties": {"neighborhood": "la Teixonera", "name": "Punt Verd M\u00f2bil *Mercat Vall d'Hebron", "district": "Horta-Guinard\u00f3", "created": "2004-02-26T18:37:00Z", "cats": ["Punt verd m\u00f2bil", "Medi ambient"], "address": "Pg Vall d'Hebron 130", "postalCode": "08035", "id": "99400074652"}}, {"geometry": {"type": "Point", "coordinates": [2.1724374166666665, 41.43558473333333]}, "type": "Feature", "id": "99400074654", "properties": {"neighborhood": "Porta", "name": "Punt Verd M\u00f2bil *Pla\u00e7a Madres de la Plaza de Mayo", "district": "Nou Barris", "created": "2004-02-26T18:39:00Z", "cats": ["Punt verd m\u00f2bil", "Medi ambient"], "address": "Pg Verdum 2", "postalCode": "08016", "id": "99400074654"}}, {"geometry": {"type": "Point", "coordinates": [2.1811745555555553, 41.420537499999995]}, "type": "Feature", "id": "99400074656", "properties": {"neighborhood": "el Congr\u00e9s i els Indians", "name": "Punt Verd M\u00f2bil *Pla\u00e7a Maragall", "district": "Sant Andreu", "created": "2004-02-26T18:44:00Z", "cats": ["Punt verd m\u00f2bil", "Medi ambient"], "address": "Pl Maragall 14", "postalCode": "08027", "id": "99400074656"}}, {"geometry": {"type": "Point", "coordinates": [2.174256972222222, 41.43003037222222]}, "type": "Feature", "id": "99400074662", "properties": {"neighborhood": "Vilapicina i la Torre Llobeta", "name": "Punt Verd M\u00f2bil *Pla\u00e7a Virrei Amat", "district": "Nou Barris", "created": "2004-02-26T18:52:00Z", "cats": ["Punt verd m\u00f2bil", "Medi ambient"], "address": "Pl Virrei Amat 6", "postalCode": "08031", "id": "99400074662"}}, {"geometry": {"type": "Point", "coordinates": [2.1498941944444443, 41.431225291666664]}, "type": "Feature", "id": "99400074664", "properties": {"neighborhood": "la Vall d'Hebron", "name": "Punt Verd M\u00f2bil *Jorge Manrique-Ventura Rodr\u00edguez", "district": "Horta-Guinard\u00f3", "created": "2004-02-26T18:54:00Z", "cats": ["Punt verd m\u00f2bil", "Medi ambient"], "address": "C Jorge Manrique 15", "postalCode": "08035", "id": "99400074664"}}, {"geometry": {"type": "Point", "coordinates": [2.1850314999999996, 41.42275031944444]}, "type": "Feature", "id": "99400074713", "properties": {"neighborhood": "la Sagrera", "name": "Punt Verd M\u00f2bil *Mercat Felip II", "district": "Sant Andreu", "created": "2004-02-27T11:41:00Z", "cats": ["Punt verd m\u00f2bil", "Medi ambient"], "address": "C Olesa 43", "postalCode": "08027", "id": "99400074713"}}, {"geometry": {"type": "Point", "coordinates": [2.142954, 41.432850375]}, "type": "Feature", "id": "99400074714", "properties": {"neighborhood": "Montbau", "name": "Punt Verd M\u00f2bil *Joan Sales-Poesia", "district": "Horta-Guinard\u00f3", "created": "2004-02-27T11:46:00Z", "cats": ["Punt verd m\u00f2bil", "Medi ambient"], "address": "C Joan Sales 3*LX", "postalCode": "08035", "id": "99400074714"}}, {"geometry": {"type": "Point", "coordinates": [2.1777777499999997, 41.44245006944444]}, "type": "Feature", "id": "99400074716", "properties": {"neighborhood": "Verdun", "name": "Punt Verd M\u00f2bil *Via J\u00falia-Pla\u00e7a Francesc Layret", "district": "Nou Barris", "created": "2004-02-27T11:51:00Z", "cats": ["Punt verd m\u00f2bil", "Medi ambient"], "address": "Via J\u00falia 111", "postalCode": "08042", "id": "99400074716"}}, {"geometry": {"type": "Point", "coordinates": [2.1930845277777777, 41.430194094444445]}, "type": "Feature", "id": "99400074722", "properties": {"neighborhood": "Sant Andreu", "name": "Punt Verd M\u00f2bil *Rambla Onze Setembre-Santa Coloma", "district": "Sant Andreu", "created": "2004-02-27T12:00:00Z", "cats": ["Punt verd m\u00f2bil", "Medi ambient"], "address": "Rbla Onze de Setembre 38", "postalCode": "08030", "id": "99400074722"}}, {"geometry": {"type": "Point", "coordinates": [2.18635375, 41.41725215555555]}, "type": "Feature", "id": "99400074723", "properties": {"neighborhood": "Navas", "name": "Punt Verd M\u00f2bil *Biscaia-Avinguda Meridiana", "district": "Sant Andreu", "created": "2004-02-27T12:04:00Z", "cats": ["Punt verd m\u00f2bil", "Medi ambient"], "address": "C Biscaia 361", "postalCode": "08027", "id": "99400074723"}}, {"geometry": {"type": "Point", "coordinates": [2.1702280555555555, 41.43862234722222]}, "type": "Feature", "id": "99400074727", "properties": {"neighborhood": "la Guineueta", "name": "Punt Verd M\u00f2bil *Mercat Guineueta", "district": "Nou Barris", "created": "2004-02-27T12:10:00Z", "cats": ["Punt verd m\u00f2bil", "Medi ambient"], "address": "Pg Valldaura 186", "postalCode": "08042", "id": "99400074727"}}, {"geometry": {"type": "Point", "coordinates": [2.1511854166666664, 41.420261374999995]}, "type": "Feature", "id": "99400074728", "properties": {"neighborhood": "el Carmel", "name": "Punt Verd M\u00f2bil *Santuari", "district": "Horta-Guinard\u00f3", "created": "2004-02-27T12:13:00Z", "cats": ["Punt verd m\u00f2bil", "Medi ambient"], "address": "C Santuari 27", "postalCode": "08032", "id": "99400074728"}}, {"geometry": {"type": "Point", "coordinates": [2.180839222222222, 41.42608544444444]}, "type": "Feature", "id": "99400074731", "properties": {"neighborhood": "el Congr\u00e9s i els Indians", "name": "Punt Verd M\u00f2bil *Pla\u00e7a Congr\u00e9s Eucar\u00edstic", "district": "Sant Andreu", "created": "2004-02-27T12:17:00Z", "cats": ["Punt verd m\u00f2bil", "Medi ambient"], "address": "Pl Congr\u00e9s Eucar\u00edstic 10", "postalCode": "08027", "id": "99400074731"}}, {"geometry": {"type": "Point", "coordinates": [2.155687972222222, 41.39390603611111]}, "type": "Feature", "id": "99400075165", "properties": {"neighborhood": "l'Antiga Esquerra de l'Eixample", "name": "Contenidor de Roba Amiga *Oficines Diputaci\u00f3 de Barcelona", "district": "Eixample", "created": "2004-03-02T17:16:00Z", "cats": ["Punt de roba amiga", "Medi ambient"], "address": "C C\u00f2rsega 273", "postalCode": "08008", "id": "99400075165"}}, {"geometry": {"type": "Point", "coordinates": [2.1625299166666667, 41.372067522222224]}, "type": "Feature", "id": "99400075166", "properties": {"neighborhood": "el Poble Sec", "name": "Contenidor Roba Amiga * Centre de Serveis Socials del Poble-sec", "district": "Sants-Montju\u00efc", "created": "2004-03-02T17:18:00Z", "cats": ["Punt de roba amiga", "Medi ambient"], "address": "Pl Sortidor 12", "postalCode": "08004", "id": "99400075166"}}, {"geometry": {"type": "Point", "coordinates": [2.156419777777778, 41.37302128611111]}, "type": "Feature", "id": "99400075167", "properties": {"neighborhood": "el Poble Sec", "name": "Contenidor Roba Amiga * Parr\u00f2quia Mare de D\u00e9u del Remei", "district": "Sants-Montju\u00efc", "created": "2004-03-02T17:19:00Z", "cats": ["Punt de roba amiga", "Medi ambient"], "address": "C Mare de D\u00e9u del Remei 38", "postalCode": "08004", "id": "99400075167"}}, {"geometry": {"type": "Point", "coordinates": [2.164352722222222, 41.37282694722222]}, "type": "Feature", "id": "99400075168", "properties": {"neighborhood": "el Poble Sec", "name": "Contenidor Roba Amiga * Casal Roser", "district": "Sants-Montju\u00efc", "created": "2004-03-02T17:24:00Z", "cats": ["Punt de roba amiga", "Medi ambient"], "address": "C Elkano 24", "postalCode": "08004", "id": "99400075168"}}, {"geometry": {"type": "Point", "coordinates": [2.1481124444444446, 41.37496484444444]}, "type": "Feature", "id": "99400075170", "properties": {"neighborhood": "Hostafrancs", "name": "Contenidor Roba Amiga * Institut Municipal d'Educaci\u00f3", "district": "Sants-Montju\u00efc", "created": "2004-03-02T17:36:00Z", "cats": ["Punt de roba amiga", "Medi ambient"], "address": "Pl Espanya 5", "postalCode": "08014", "id": "99400075170"}}, {"geometry": {"type": "Point", "coordinates": [2.164352722222222, 41.37282694722222]}, "type": "Feature", "id": "99400075171", "properties": {"neighborhood": "el Poble Sec", "name": "Contenidor Roba Amiga * Coordinadora d'Entitats Poble-sec", "district": "Sants-Montju\u00efc", "created": "2004-03-02T17:38:00Z", "cats": ["Punt de roba amiga", "Medi ambient"], "address": "C Elkano 24*26", "postalCode": "08004", "id": "99400075171"}}, {"geometry": {"type": "Point", "coordinates": [2.1518613055555553, 41.39780037777778]}, "type": "Feature", "id": "99400075173", "properties": {"neighborhood": "Sant Gervasi - Galvany", "name": "Contenidor Roba Amiga * Escoles Pia Balmes", "district": "Sarri\u00e0-Sant Gervasi", "created": "2004-03-02T17:42:00Z", "cats": ["Punt de roba amiga", "Medi ambient"], "address": "C Balmes 208 bxs", "postalCode": "08006", "id": "99400075173"}}, {"geometry": {"type": "Point", "coordinates": [2.121250416666667, 41.40231490833333]}, "type": "Feature", "id": "99400075174", "properties": {"neighborhood": "Sarri\u00e0", "name": "Contenidor Roba Amiga * Colegi Sant Marc de Sarri\u00e0", "district": "Sarri\u00e0-Sant Gervasi", "created": "2004-03-02T17:44:00Z", "cats": ["Punt de roba amiga", "Medi ambient"], "address": "C Margenat 19", "postalCode": "08017", "id": "99400075174"}}, {"geometry": {"type": "Point", "coordinates": [2.1430796666666665, 41.4018405]}, "type": "Feature", "id": "99400075175", "properties": {"neighborhood": "Sant Gervasi - Galvany", "name": "Contenidor Roba Amiga *IES Montserrat", "district": "Sarri\u00e0-Sant Gervasi", "created": "2004-03-02T17:45:00Z", "cats": ["Punt de roba amiga", "Medi ambient"], "address": "C Cop\u00e8rnic 84", "postalCode": "08006", "id": "99400075175"}}, {"geometry": {"type": "Point", "coordinates": [2.1109719166666667, 41.408988783333335]}, "type": "Feature", "id": "99400075176", "properties": {"neighborhood": "Sarri\u00e0", "name": "Contenidor Roba Amiga * Col\u00b7legi Monserrat", "district": "Sarri\u00e0-Sant Gervasi", "created": "2004-03-02T17:46:00Z", "cats": ["Punt de roba amiga", "Medi ambient"], "address": "Av Vallvidrera 68", "postalCode": "08017", "id": "99400075176"}}, {"geometry": {"type": "Point", "coordinates": [2.1374475555555557, 41.42686749166666]}, "type": "Feature", "id": "99400075184", "properties": {"neighborhood": "Sant Gen\u00eds dels Agudells", "name": "Contenidor de Roba Amiga *Centre C\u00edvic Casa Groga", "district": "Horta-Guinard\u00f3", "created": "2004-03-02T18:02:00Z", "cats": ["Punt de roba amiga", "Medi ambient"], "address": "Av Jord\u00e0 27", "postalCode": "08035", "id": "99400075184"}}, {"geometry": {"type": "Point", "coordinates": [2.1659366388888888, 41.442931474999995]}, "type": "Feature", "id": "99400075190", "properties": {"neighborhood": "Canyelles", "name": "Contenidor Roba Amiga * Escola Bressol Municipal El Vent", "district": "Nou Barris", "created": "2004-03-02T18:08:00Z", "cats": ["Punt de roba amiga", "Medi ambient"], "address": "C Miguel Hern\u00e1ndez 20 bxs", "postalCode": "08042", "id": "99400075190"}}, {"geometry": {"type": "Point", "coordinates": [2.1737789999999997, 41.426555666666665]}, "type": "Feature", "id": "99400075191", "properties": {"neighborhood": "Vilapicina i la Torre Llobeta", "name": "Contenidor Roba Amiga * Centre C\u00edvic Torre Llobeta", "district": "Nou Barris", "created": "2004-03-02T18:09:00Z", "cats": ["Punt de roba amiga", "Medi ambient"], "address": "C Santa Fe 2b", "postalCode": "08031", "id": "99400075191"}}, {"geometry": {"type": "Point", "coordinates": [2.170865694444444, 41.443498577777774]}, "type": "Feature", "id": "99400075288", "properties": {"neighborhood": "Canyelles", "name": "Contenidor Roba Amiga * Benzinera Favencia BP", "district": "Nou Barris", "created": "2004-03-03T12:25:00Z", "cats": ["Punt de roba amiga", "Medi ambient"], "address": "Via Fav\u00e8ncia 121", "postalCode": "08042", "id": "99400075288"}}, {"geometry": {"type": "Point", "coordinates": [2.1294894444444443, 41.38623514166667]}, "type": "Feature", "id": "99400075292", "properties": {"neighborhood": "les Corts", "name": "Contenidor Roba Amiga * Benzinera Repsol", "district": "Les Corts", "created": "2004-03-03T12:31:00Z", "cats": ["Punt de roba amiga", "Medi ambient"], "address": "C Joan G\u00fcell 209", "postalCode": "08028", "id": "99400075292"}}, {"geometry": {"type": "Point", "coordinates": [2.1584045277777775, 41.42367483611111]}, "type": "Feature", "id": "99400075300", "properties": {"neighborhood": "el Carmel", "name": "Contenidor de Roba Amiga *Espai Jove Boca Nord", "district": "Horta-Guinard\u00f3", "created": "2004-03-03T12:40:00Z", "cats": ["Punt de roba amiga", "Medi ambient"], "address": "C Agudells 37", "postalCode": "08032", "id": "99400075300"}}, {"geometry": {"type": "Point", "coordinates": [2.2049120833333333, 41.43478198055555]}, "type": "Feature", "id": "99400075308", "properties": {"neighborhood": "el Bon Pastor", "name": "Contenidor Roba Amiga * Centre C\u00edvic Bon Pastor", "district": "Sant Andreu", "created": "2004-03-03T12:45:00Z", "cats": ["Punt de roba amiga", "Medi ambient"], "address": "Pl Robert Gerhard 3*4", "postalCode": "08000", "id": "99400075308"}}, {"geometry": {"type": "Point", "coordinates": [2.1511854166666664, 41.420261374999995]}, "type": "Feature", "id": "99400075311", "properties": {"neighborhood": "el Carmel", "name": "Contenidor de Roba Amiga *Centre C\u00edvic Carmel", "district": "Horta-Guinard\u00f3", "created": "2004-03-03T12:48:00Z", "cats": ["Punt de roba amiga", "Medi ambient"], "address": "C Santuari 27", "postalCode": "08032", "id": "99400075311"}}, {"geometry": {"type": "Point", "coordinates": [2.1445515, 41.422635025]}, "type": "Feature", "id": "99400075314", "properties": {"neighborhood": "la Teixonera", "name": "Contenidor de Roba Amiga *Centre C\u00edvic Teixonera", "district": "Horta-Guinard\u00f3", "created": "2004-03-03T12:49:00Z", "cats": ["Punt de roba amiga", "Medi ambient"], "address": "C Arenys 75", "postalCode": "08035", "id": "99400075314"}}, {"geometry": {"type": "Point", "coordinates": [2.198467194444444, 41.44077756666666]}, "type": "Feature", "id": "99400075325", "properties": {"neighborhood": "el Bon Pastor", "name": "Contenidor Roba Amiga * Centre Comercial La Maquinista", "district": "Sant Andreu", "created": "2004-03-03T13:02:00Z", "cats": ["Punt de roba amiga", "Medi ambient"], "address": "Pg Potos\u00ed 2", "postalCode": "08030", "id": "99400075325"}}, {"geometry": {"type": "Point", "coordinates": [2.19393425, 41.45378506666667]}, "type": "Feature", "id": "99400075330", "properties": {"neighborhood": "la Trinitat Vella", "name": "Contenidor Roba Amiga * Complex Esportiu Municipal Trinitat Vella", "district": "Sant Andreu", "created": "2004-03-03T13:17:00Z", "cats": ["Punt de roba amiga", "Medi ambient"], "address": "Via B\u00e0rcino 1", "postalCode": "08033", "id": "99400075330"}}, {"geometry": {"type": "Point", "coordinates": [2.190687611111111, 41.413095263888884]}, "type": "Feature", "id": "99400075339", "properties": {"neighborhood": "el Clot", "name": "Contenidor Roba Amiga * ETP el Clot", "district": "Sant Mart\u00ed", "created": "2004-03-03T13:28:00Z", "cats": ["Punt de roba amiga", "Medi ambient"], "address": "C Val\u00e8ncia 690", "postalCode": "08027", "id": "99400075339"}}, {"geometry": {"type": "Point", "coordinates": [2.159147972222222, 41.38354382222222]}, "type": "Feature", "id": "99400075345", "properties": {"neighborhood": "l'Antiga Esquerra de l'Eixample", "name": "Contenidor de Roba Amiga *Jardins C\u00e8sar Martinell", "district": "Eixample", "created": "2004-03-03T13:45:00Z", "cats": ["Punt de roba amiga", "Medi ambient"], "address": "C Villarroel 60", "postalCode": "08011", "id": "99400075345"}}, {"geometry": {"type": "Point", "coordinates": [2.178957333333333, 41.40051863611111]}, "type": "Feature", "id": "99400075347", "properties": {"neighborhood": "el Fort Pienc", "name": "Contenidor de Roba Amiga *Jardins Clotilde Cerd\u00e0", "district": "Eixample", "created": "2004-03-03T13:47:00Z", "cats": ["Punt de roba amiga", "Medi ambient"], "address": "C Marina 197", "postalCode": "08013", "id": "99400075347"}}, {"geometry": {"type": "Point", "coordinates": [2.173557888888889, 41.393724480555555]}, "type": "Feature", "id": "99400075348", "properties": {"neighborhood": "la Dreta de l'Eixample", "name": "Contenidor de Roba Amiga *Jardins Jaume Perich", "district": "Eixample", "created": "2004-03-03T13:48:00Z", "cats": ["Punt de roba amiga", "Medi ambient"], "address": "G.V. Corts Catalanes 659", "postalCode": "08010", "id": "99400075348"}}, {"geometry": {"type": "Point", "coordinates": [2.1800229166666667, 41.401009716666664]}, "type": "Feature", "id": "99400075350", "properties": {"neighborhood": "el Fort Pienc", "name": "Contenidor de Roba Amiga *Jardins Manuel de Pedrolo", "district": "Eixample", "created": "2004-03-03T13:50:00Z", "cats": ["Punt de roba amiga", "Medi ambient"], "address": "C Diputaci\u00f3 463", "postalCode": "08013", "id": "99400075350"}}, {"geometry": {"type": "Point", "coordinates": [2.150192166666667, 41.386369630555556]}, "type": "Feature", "id": "99400075351", "properties": {"neighborhood": "la Nova Esquerra de l'Eixample", "name": "Contenidor de Roba Amiga *Jardins Maria Merc\u00e8 Mar\u00e7al", "district": "Eixample", "created": "2004-03-03T13:51:00Z", "cats": ["Punt de roba amiga", "Medi ambient"], "address": "C Proven\u00e7a 101", "postalCode": "08029", "id": "99400075351"}}, {"geometry": {"type": "Point", "coordinates": [2.178437972222222, 41.409025883333335]}, "type": "Feature", "id": "99400075353", "properties": {"neighborhood": "la Sagrada Fam\u00edlia", "name": "Contenidor de Roba Amiga *Jardins Montserrat Roig", "district": "Eixample", "created": "2004-03-03T13:52:00Z", "cats": ["Punt de roba amiga", "Medi ambient"], "address": "C Rossell\u00f3 488", "postalCode": "08025", "id": "99400075353"}}, {"geometry": {"type": "Point", "coordinates": [2.1533440277777776, 41.37911956944445]}, "type": "Feature", "id": "99400075355", "properties": {"neighborhood": "la Nova Esquerra de l'Eixample", "name": "Contenidor de Roba Amiga *Jardins Sebasti\u00e0 Gasch", "district": "Eixample", "created": "2004-03-03T13:54:00Z", "cats": ["Punt de roba amiga", "Medi ambient"], "address": "C Rocafort 87", "postalCode": "08015", "id": "99400075355"}}, {"geometry": {"type": "Point", "coordinates": [2.155506472222222, 41.38260673333333]}, "type": "Feature", "id": "99400075356", "properties": {"neighborhood": "la Nova Esquerra de l'Eixample", "name": "Contenidor de Roba Amiga *Jardins d'Emma", "district": "Eixample", "created": "2004-03-03T13:55:00Z", "cats": ["Punt de roba amiga", "Medi ambient"], "address": "C Comte Borrell 157", "postalCode": "08015", "id": "99400075356"}}, {"geometry": {"type": "Point", "coordinates": [2.1219112222222223, 41.40241198611111]}, "type": "Feature", "id": "99400075357", "properties": {"neighborhood": "Sarri\u00e0", "name": "Contenidor Roba Amiga * IPFPEP Sant Ignasi - Sarri\u00e0 Jesuites", "district": "Sarri\u00e0-Sant Gervasi", "created": "2004-03-03T13:56:00Z", "cats": ["Punt de roba amiga", "Medi ambient"], "address": "C Carrasco i Formiguera 23", "postalCode": "08017", "id": "99400075357"}}, {"geometry": {"type": "Point", "coordinates": [2.147140388888889, 41.435725311111106]}, "type": "Feature", "id": "99400075360", "properties": {"neighborhood": "Montbau", "name": "Contenidor de Roba Amiga *Llars Mundet", "district": "Horta-Guinard\u00f3", "created": "2004-03-03T14:01:00Z", "cats": ["Punt de roba amiga", "Medi ambient"], "address": "Pg Vall d'Hebron 171", "postalCode": "08007", "id": "99400075360"}}, {"geometry": {"type": "Point", "coordinates": [2.2061515833333334, 41.43598525555555]}, "type": "Feature", "id": "99400075363", "properties": {"neighborhood": "el Bon Pastor", "name": "Contenidor Roba Amiga * Mercat Bon Pastor", "district": "Sant Andreu", "created": "2004-03-03T14:03:00Z", "cats": ["Punt de roba amiga", "Medi ambient"], "address": "C Sant Adri\u00e0 156", "postalCode": "08030", "id": "99400075363"}}, {"geometry": {"type": "Point", "coordinates": [2.1640757777777777, 41.441828888888885]}, "type": "Feature", "id": "99400075366", "properties": {"neighborhood": "Canyelles", "name": "Contenidor Roba Amiga * Mercat Canyelles", "district": "Nou Barris", "created": "2004-03-03T14:10:00Z", "cats": ["Punt de roba amiga", "Medi ambient"], "address": "C Antonio Machado 8", "postalCode": "08042", "id": "99400075366"}}, {"geometry": {"type": "Point", "coordinates": [2.1770115555555556, 41.40568788611111]}, "type": "Feature", "id": "99400075374", "properties": {"neighborhood": "la Sagrada Fam\u00edlia", "name": "Contenidor de Roba Amiga *Mercat Sagrada Fam\u00edlia", "district": "Eixample", "created": "2004-03-03T14:19:00Z", "cats": ["Punt de roba amiga", "Medi ambient"], "address": "C Padilla 255", "postalCode": "08013", "id": "99400075374"}}, {"geometry": {"type": "Point", "coordinates": [2.1693041666666666, 41.395697891666664]}, "type": "Feature", "id": "99400075521", "properties": {"neighborhood": "la Dreta de l'Eixample", "name": "Contenidor de Roba Amiga *Mercat Concepci\u00f3", "district": "Eixample", "created": "2004-03-04T13:30:00Z", "cats": ["Punt de roba amiga", "Medi ambient"], "address": "C Arag\u00f3 313", "postalCode": "08009", "id": "99400075521"}}, {"geometry": {"type": "Point", "coordinates": [2.1702280555555555, 41.43862234722222]}, "type": "Feature", "id": "99400075522", "properties": {"neighborhood": "la Guineueta", "name": "Contenidor Roba Amiga * Mercat de la Guineueta", "district": "Nou Barris", "created": "2004-03-04T13:31:00Z", "cats": ["Punt de roba amiga", "Medi ambient"], "address": "Pg Valldaura 186", "postalCode": "08042", "id": "99400075522"}}, {"geometry": {"type": "Point", "coordinates": [2.1735820277777775, 41.430452816666666]}, "type": "Feature", "id": "99400075525", "properties": {"neighborhood": "el Tur\u00f3 de la Peira", "name": "Contenidor Roba Amiga * Mercat de la Merc\u00e8", "district": "Nou Barris", "created": "2004-03-04T13:34:00Z", "cats": ["Punt de roba amiga", "Medi ambient"], "address": "Pg Fabra i Puig 270", "postalCode": "08031", "id": "99400075525"}}, {"geometry": {"type": "Point", "coordinates": [2.184282138888889, 41.447964013888885]}, "type": "Feature", "id": "99400075528", "properties": {"neighborhood": "la Trinitat Nova", "name": "Contenidor Roba Amiga * Mercat de la Trinitat", "district": "Nou Barris", "created": "2004-03-04T13:35:00Z", "cats": ["Punt de roba amiga", "Medi ambient"], "address": "C Fosca 10", "postalCode": "08033", "id": "99400075528"}}, {"geometry": {"type": "Point", "coordinates": [2.142434333333333, 41.42403196944444]}, "type": "Feature", "id": "99400075539", "properties": {"neighborhood": "la Teixonera", "name": "Contenidor de Roba Amiga *Mercat Vall Hebron", "district": "Horta-Guinard\u00f3", "created": "2004-03-04T13:46:00Z", "cats": ["Punt de roba amiga", "Medi ambient"], "address": "Pg Vall d'Hebron 130", "postalCode": "08035", "id": "99400075539"}}, {"geometry": {"type": "Point", "coordinates": [2.159360527777778, 41.40220993611111]}, "type": "Feature", "id": "99400075540", "properties": {"neighborhood": "la Vila de Gr\u00e0cia", "name": "Contenidor de Roba Amiga *Mercat Abaceria", "district": "Gr\u00e0cia", "created": "2004-03-04T13:47:00Z", "cats": ["Punt de roba amiga", "Medi ambient"], "address": "Trav Gr\u00e0cia 186", "postalCode": "08012", "id": "99400075540"}}, {"geometry": {"type": "Point", "coordinates": [2.1787715, 41.44629489722222]}, "type": "Feature", "id": "99400075545", "properties": {"neighborhood": "les Roquetes", "name": "Contenidor Roba Amiga * Mercat de Montserrat", "district": "Nou Barris", "created": "2004-03-04T13:51:00Z", "cats": ["Punt de roba amiga", "Medi ambient"], "address": "Via Fav\u00e8ncia 241", "postalCode": "08042", "id": "99400075545"}}, {"geometry": {"type": "Point", "coordinates": [2.1883904166666666, 41.43489202777778]}, "type": "Feature", "id": "99400075548", "properties": {"neighborhood": "Sant Andreu", "name": "Contenidor Roba Amiga * Mercat de Sant Andreu", "district": "Sant Andreu", "created": "2004-03-04T13:52:00Z", "cats": ["Punt de roba amiga", "Medi ambient"], "address": "Pl Mercadal 41", "postalCode": "08030", "id": "99400075548"}}, {"geometry": {"type": "Point", "coordinates": [2.10415675, 41.41381550277778]}, "type": "Feature", "id": "99400075559", "properties": {"neighborhood": "Vallvidrera, el Tibidabo i les Planes", "name": "Contenidor Roba Amiga * Mercat de Vallvidrera", "district": "Sarri\u00e0-Sant Gervasi", "created": "2004-03-04T13:57:00Z", "cats": ["Punt de roba amiga", "Medi ambient"], "address": "C Reis Cat\u00f2lics 2", "postalCode": "08017", "id": "99400075559"}}, {"geometry": {"type": "Point", "coordinates": [2.154394083333333, 41.38782654166667]}, "type": "Feature", "id": "99400075562", "properties": {"neighborhood": "l'Antiga Esquerra de l'Eixample", "name": "Contenidor de Roba Amiga *Mercat Ninot", "district": "Eixample", "created": "2004-03-04T13:59:00Z", "cats": ["Punt de roba amiga", "Medi ambient"], "address": "C Mallorca 133", "postalCode": "08036", "id": "99400075562"}}, {"geometry": {"type": "Point", "coordinates": [2.15959125, 41.42959485555555]}, "type": "Feature", "id": "99400075564", "properties": {"neighborhood": "Horta", "name": "Contenidor de Roba Amiga *Mercat Horta", "district": "Horta-Guinard\u00f3", "created": "2004-03-04T14:00:00Z", "cats": ["Punt de roba amiga", "Medi ambient"], "address": "C Tajo 75", "postalCode": "08032", "id": "99400075564"}}, {"geometry": {"type": "Point", "coordinates": [2.1790886944444443, 41.386119980555556]}, "type": "Feature", "id": "99400075566", "properties": {"neighborhood": "Sant Pere, Santa Caterina i la Ribera", "name": "Contenidor de Roba Amiga *Mercat de Santa Caterina", "district": "Ciutat Vella", "created": "2004-03-04T14:02:00Z", "cats": ["Punt de roba amiga", "Medi ambient"], "address": "Pl Joan Capri 1", "postalCode": "08003", "id": "99400075566"}}, {"geometry": {"type": "Point", "coordinates": [2.188204361111111, 41.42392123888889]}, "type": "Feature", "id": "99400075567", "properties": {"neighborhood": "la Sagrera", "name": "Contenidor Roba Amiga * Parr\u00f2quia de Crist Rei", "district": "Sant Andreu", "created": "2004-03-04T14:08:00Z", "cats": ["Punt de roba amiga", "Medi ambient"], "address": "C Mart\u00ed Molins 43", "postalCode": "08027", "id": "99400075567"}}, {"geometry": {"type": "Point", "coordinates": [2.1873112777777775, 41.43133762222222]}, "type": "Feature", "id": "99400075568", "properties": {"neighborhood": "Sant Andreu", "name": "Contenidor Roba Amiga * Parroquia Sant Paci\u00e0", "district": "Sant Andreu", "created": "2004-03-04T14:11:00Z", "cats": ["Punt de roba amiga", "Medi ambient"], "address": "C Vall\u00e8s 40", "postalCode": "08030", "id": "99400075568"}}, {"geometry": {"type": "Point", "coordinates": [2.1029298333333335, 41.41780754166666]}, "type": "Feature", "id": "99400075583", "properties": {"neighborhood": "Vallvidrera, el Tibidabo i les Planes", "name": "Contenidor Roba Amiga * Punt verd de Barri de Collserola", "district": "Sarri\u00e0-Sant Gervasi", "created": "2004-03-04T14:34:00Z", "cats": ["Punt de roba amiga", "Medi ambient"], "address": "C Reis Cat\u00f2lics 38", "postalCode": "08017", "id": "99400075583"}}, {"geometry": {"type": "Point", "coordinates": [2.1534346388888888, 41.399098027777775]}, "type": "Feature", "id": "99400075585", "properties": {"neighborhood": "la Vila de Gr\u00e0cia", "name": "Punt Verd de Barri - Gal\u00b7la Plac\u00eddia", "district": "Gr\u00e0cia", "created": "2004-03-04T14:35:00Z", "cats": ["Punt de roba amiga", "Medi ambient"], "address": "Pl Gal.la Plac\u00eddia 12", "postalCode": "08006", "id": "99400075585"}}, {"geometry": {"type": "Point", "coordinates": [2.1757318888888886, 41.40501550277778]}, "type": "Feature", "id": "99400075586", "properties": {"neighborhood": "la Sagrada Fam\u00edlia", "name": "Contenidor de Roba Amiga *Punt Verd Barri Sagrada Fam\u00edlia", "district": "Eixample", "created": "2004-03-04T14:36:00Z", "cats": ["Punt de roba amiga", "Medi ambient"], "address": "C Lepant 283", "postalCode": "08013", "id": "99400075586"}}, {"geometry": {"type": "Point", "coordinates": [2.172411861111111, 41.37445233611111]}, "type": "Feature", "id": "99400075590", "properties": {"neighborhood": "el Poble Sec", "name": "Contenidor Roba Amiga * Punt Verd de Barri de Poble-sec", "district": "Sants-Montju\u00efc", "created": "2004-03-04T14:37:00Z", "cats": ["Punt de roba amiga", "Medi ambient"], "address": "C Palaud\u00e0ries 2", "postalCode": "08004", "id": "99400075590"}}, {"geometry": {"type": "Point", "coordinates": [2.1887704166666664, 41.42825268611111]}, "type": "Feature", "id": "99400075592", "properties": {"neighborhood": "Sant Andreu", "name": "Contenidor Roba Amiga *Punt Verd de Barri de Sant Andreu", "district": "Sant Andreu", "created": "2004-03-04T14:39:00Z", "cats": ["Punt de roba amiga", "Medi ambient"], "address": "C Rovira i Virgili 14", "postalCode": "08030", "id": "99400075592"}}, {"geometry": {"type": "Point", "coordinates": [2.189168138888889, 41.40701308333333]}, "type": "Feature", "id": "99400075599", "properties": {"neighborhood": "el Clot", "name": "Contenidor Roba Amiga * Punt Verd de Barri del Clot", "district": "Sant Mart\u00ed", "created": "2004-03-04T14:52:00Z", "cats": ["Punt de roba amiga", "Medi ambient"], "address": "C Escultors Claper\u00f3s 34", "postalCode": "08018", "id": "99400075599"}}, {"geometry": {"type": "Point", "coordinates": [2.174359055555555, 41.41417621944444]}, "type": "Feature", "id": "99400075600", "properties": {"neighborhood": "el Guinard\u00f3", "name": "Contenidor de Roba Amiga *Punt Verd Barri Horta - Guinard\u00f3", "district": "Horta-Guinard\u00f3", "created": "2004-03-04T14:53:00Z", "cats": ["Punt de roba amiga", "Medi ambient"], "address": "C Mas Casanovas 90", "postalCode": "08041", "id": "99400075600"}}, {"geometry": {"type": "Point", "coordinates": [2.1361869444444443, 41.41623882222222]}, "type": "Feature", "id": "99400075606", "properties": {"neighborhood": "Vallcarca i els Penitents", "name": "Contenidor de Roba Amiga *Punt Verd Collserola", "district": "Gr\u00e0cia", "created": "2004-03-04T16:07:00Z", "cats": ["Punt de roba amiga", "Medi ambient"], "address": "C Collserola 2", "postalCode": "08035", "id": "99400075606"}}, {"geometry": {"type": "Point", "coordinates": [2.1557673611111112, 41.4309787]}, "type": "Feature", "id": "99400075607", "properties": {"neighborhood": "Horta", "name": "Contenidor de Roba Amiga *Punt Verd Vall Hebron", "district": "Horta-Guinard\u00f3", "created": "2004-03-04T16:08:00Z", "cats": ["Punt de roba amiga", "Medi ambient"], "address": "Av Estatut de Catalunya 12", "postalCode": "08032", "id": "99400075607"}}, {"geometry": {"type": "Point", "coordinates": [2.10824375, 41.38884918888889]}, "type": "Feature", "id": "99400075609", "properties": {"neighborhood": "Pedralbes", "name": "Contenidor Roba Amiga * Punt Verd de Les Corts - Pedralbes", "district": "Les Corts", "created": "2004-03-04T16:11:00Z", "cats": ["Punt de roba amiga", "Medi ambient"], "address": "Av Esplugues 60", "postalCode": "08034", "id": "99400075609"}}, {"geometry": {"type": "Point", "coordinates": [2.202341666666667, 41.44552006111111]}, "type": "Feature", "id": "99400075610", "properties": {"neighborhood": "el Bon Pastor", "name": "Contenidor Roba Amiga * Punt Verd de Sant Andreu", "district": "Sant Andreu", "created": "2004-03-04T16:12:00Z", "cats": ["Punt de roba amiga", "Medi ambient"], "address": "C Caracas 44", "postalCode": "08030", "id": "99400075610"}}, {"geometry": {"type": "Point", "coordinates": [2.1397920555555556, 41.35502710277778]}, "type": "Feature", "id": "99400075613", "properties": {"neighborhood": "la Marina del Prat Vermell", "name": "Contenidor Roba Amiga * Punt Verd Montju\u00efc", "district": "Sants-Montju\u00efc", "created": "2004-03-04T16:24:00Z", "cats": ["Punt de roba amiga", "Medi ambient"], "address": "C Foc 56", "postalCode": "08038", "id": "99400075613"}}, {"geometry": {"type": "Point", "coordinates": [2.1494699444444443, 41.387536374999996]}, "type": "Feature", "id": "99400075614", "properties": {"neighborhood": "la Nova Esquerra de l'Eixample", "name": "Contenidor de Roba Amiga *Recinte Escola Industrial", "district": "Eixample", "created": "2004-03-04T16:26:00Z", "cats": ["Punt de roba amiga", "Medi ambient"], "address": "C Rossell\u00f3 139 bxs", "postalCode": "08029", "id": "99400075614"}}, {"geometry": {"type": "Point", "coordinates": [2.126233083333333, 41.38129317777778]}, "type": "Feature", "id": "99400075616", "properties": {"neighborhood": "la Maternitat i Sant Ramon", "name": "Contenidor Roba Amiga * Recinte Maternitat", "district": "Les Corts", "created": "2004-03-04T16:28:00Z", "cats": ["Punt de roba amiga", "Medi ambient"], "address": "Trav Corts 131", "postalCode": "08028", "id": "99400075616"}}, {"geometry": {"type": "Point", "coordinates": [2.115375111111111, 41.38991789166666]}, "type": "Feature", "id": "99400075617", "properties": {"neighborhood": "Pedralbes", "name": "Contenidor Roba Amiga * UPC Campus Nord", "district": "Les Corts", "created": "2004-03-04T16:30:00Z", "cats": ["Punt de roba amiga", "Medi ambient"], "address": "C Jordi Girona 1", "postalCode": "08034", "id": "99400075617"}}, {"geometry": {"type": "Point", "coordinates": [2.1308741111111114, 41.375240500000004]}, "type": "Feature", "id": "99400075712", "properties": {"neighborhood": "Sants", "name": "Punt Verd M\u00f2bil *Rambla Badal-Sants", "district": "Sants-Montju\u00efc", "created": "2004-03-05T11:52:00Z", "cats": ["Punt verd m\u00f2bil", "Medi ambient"], "address": "Rbla Badal 202", "postalCode": "08028", "id": "99400075712"}}, {"geometry": {"type": "Point", "coordinates": [2.1898395555555554, 41.37984413611111]}, "type": "Feature", "id": "99400075871", "properties": {"neighborhood": "la Barceloneta", "name": "Punt Verd M\u00f2bil *Mercat Barceloneta", "district": "Ciutat Vella", "created": "2004-03-08T11:11:00Z", "cats": ["Punt verd m\u00f2bil", "Medi ambient"], "address": "C Atl\u00e0ntida 49", "postalCode": "08003", "id": "99400075871"}}, {"geometry": {"type": "Point", "coordinates": [2.1447999444444443, 41.37471778888889]}, "type": "Feature", "id": "99400075873", "properties": {"neighborhood": "Hostafrancs", "name": "Punt Verd M\u00f2bil *Mercat d'Hostafrancs", "district": "Sants-Montju\u00efc", "created": "2004-03-08T11:13:00Z", "cats": ["Punt verd m\u00f2bil", "Medi ambient"], "address": "C Vilardell 33", "postalCode": "08014", "id": "99400075873"}}, {"geometry": {"type": "Point", "coordinates": [2.1775149444444444, 41.385823977777775]}, "type": "Feature", "id": "99400075876", "properties": {"neighborhood": "Parc", "name": "Punt Verd M\u00f2bil *Mercat Santa Caterina", "district": "Ciutat Vella", "created": "2004-03-08T11:15:00Z", "cats": ["Punt verd m\u00f2bil", "Medi ambient"], "address": "Av Francesc Camb\u00f3 12", "postalCode": "08003", "id": "99400075876"}}, {"geometry": {"type": "Point", "coordinates": [2.1785966388888887, 41.378503422222224]}, "type": "Feature", "id": "99400075904", "properties": {"neighborhood": "el Barri G\u00f2tic", "name": "Punt Verd M\u00f2bil *Pla\u00e7a Duc Medinaceli-Ample", "district": "Ciutat Vella", "created": "2004-03-08T12:27:00Z", "cats": ["Punt verd m\u00f2bil", "Medi ambient"], "address": "Pl Duc de Medinaceli 1", "postalCode": "08002", "id": "99400075904"}}, {"geometry": {"type": "Point", "coordinates": [2.1395445555555557, 41.360975161111114]}, "type": "Feature", "id": "99400075906", "properties": {"neighborhood": "la Marina de Port", "name": "Punt Verd M\u00f2bil *Mercat de la Marina", "district": "Sants-Montju\u00efc", "created": "2004-03-08T12:30:00Z", "cats": ["Punt verd m\u00f2bil", "Medi ambient"], "address": "C Foneria 39", "postalCode": "08038", "id": "99400075906"}}, {"geometry": {"type": "Point", "coordinates": [2.18230925, 41.38417171111111]}, "type": "Feature", "id": "99400075908", "properties": {"neighborhood": "Parc", "name": "Punt Verd M\u00f2bil *Passeig del Born-Montcada", "district": "Ciutat Vella", "created": "2004-03-08T12:37:00Z", "cats": ["Punt verd m\u00f2bil", "Medi ambient"], "address": "Pg Born 3", "postalCode": "08003", "id": "99400075908"}}, {"geometry": {"type": "Point", "coordinates": [2.1341235277777777, 41.367402075]}, "type": "Feature", "id": "99400075909", "properties": {"neighborhood": "la Bordeta", "name": "Punt Verd M\u00f2bil *Rambla Badal-Quetzal", "district": "Sants-Montju\u00efc", "created": "2004-03-08T12:39:00Z", "cats": ["Punt verd m\u00f2bil", "Medi ambient"], "address": "Rbla Badal 40", "postalCode": "08014", "id": "99400075909"}}, {"geometry": {"type": "Point", "coordinates": [2.1753334166666667, 41.37656226111111]}, "type": "Feature", "id": "99400075910", "properties": {"neighborhood": "el Raval", "name": "Punt Verd M\u00f2bil *Drassanes-Portal Santa Madrona", "district": "Ciutat Vella", "created": "2004-03-08T12:41:00Z", "cats": ["Punt verd m\u00f2bil", "Medi ambient"], "address": "C Portal de Santa Madrona 12", "postalCode": "08001", "id": "99400075910"}}, {"geometry": {"type": "Point", "coordinates": [2.1489688611111113, 41.407744538888885]}, "type": "Feature", "id": "99400075912", "properties": {"neighborhood": "Vallcarca i els Penitents", "name": "Punt Verd M\u00f2bil *Bibioteca Jaume Fuster-Pla\u00e7a Lesseps", "district": "Gr\u00e0cia", "created": "2004-03-08T12:44:00Z", "cats": ["Punt verd m\u00f2bil", "Medi ambient"], "address": "C Riera de Vallcarca 17", "postalCode": "08023", "id": "99400075912"}}, {"geometry": {"type": "Point", "coordinates": [2.1411243333333334, 41.38068741111111]}, "type": "Feature", "id": "99400075913", "properties": {"neighborhood": "Sants", "name": "Punt Verd M\u00f2bil *Num\u00e0ncia-Viriat", "district": "Sants-Montju\u00efc", "created": "2004-03-08T12:46:00Z", "cats": ["Punt verd m\u00f2bil", "Medi ambient"], "address": "C Viriat 47", "postalCode": "08014", "id": "99400075913"}}, {"geometry": {"type": "Point", "coordinates": [2.167807972222222, 41.383008438888886]}, "type": "Feature", "id": "99400075914", "properties": {"neighborhood": "el Raval", "name": "Punt Verd M\u00f2bil *Pla\u00e7a dels \u00c0ngels-Montalegre", "district": "Ciutat Vella", "created": "2004-03-08T12:48:00Z", "cats": ["Punt verd m\u00f2bil", "Medi ambient"], "address": "Pl \u00c0ngels 1", "postalCode": "08001", "id": "99400075914"}}, {"geometry": {"type": "Point", "coordinates": [2.1389139166666666, 41.37209191944444]}, "type": "Feature", "id": "99400075919", "properties": {"neighborhood": "la Bordeta", "name": "Punt Verd M\u00f2bil *Pla\u00e7a de la Farga", "district": "Sants-Montju\u00efc", "created": "2004-03-08T12:53:00Z", "cats": ["Punt verd m\u00f2bil", "Medi ambient"], "address": "C Almeria 36", "postalCode": "08014", "id": "99400075919"}}, {"geometry": {"type": "Point", "coordinates": [2.1801731944444445, 41.390673802777776]}, "type": "Feature", "id": "99400075920", "properties": {"neighborhood": "Parc", "name": "Punt Verd M\u00f2bil *Arc de Triomf", "district": "Ciutat Vella", "created": "2004-03-08T12:56:00Z", "cats": ["Punt verd m\u00f2bil", "Medi ambient"], "address": "Pg Llu\u00eds Companys 15", "postalCode": "08003", "id": "99400075920"}}, {"geometry": {"type": "Point", "coordinates": [2.1769389444444442, 41.38220241111111]}, "type": "Feature", "id": "99400075924", "properties": {"neighborhood": "el Barri G\u00f2tic", "name": "Punt Verd M\u00f2bil *Pla\u00e7a Sant Miquel", "district": "Ciutat Vella", "created": "2004-03-08T13:00:00Z", "cats": ["Punt verd m\u00f2bil", "Medi ambient"], "address": "Pl Sant Miquel 1", "postalCode": "08002", "id": "99400075924"}}, {"geometry": {"type": "Point", "coordinates": [2.1680429166666664, 41.37937483333334]}, "type": "Feature", "id": "99400075925", "properties": {"neighborhood": "el Raval", "name": "Punt Verd M\u00f2bil *Rambla Raval-Hospital", "district": "Ciutat Vella", "created": "2004-03-08T13:01:00Z", "cats": ["Punt verd m\u00f2bil", "Medi ambient"], "address": "Rbla Raval 2", "postalCode": "08001", "id": "99400075925"}}, {"geometry": {"type": "Point", "coordinates": [2.1598335555555557, 41.39390823611111]}, "type": "Feature", "id": "99400075928", "properties": {"neighborhood": "la Dreta de l'Eixample", "name": "Punt Verd M\u00f2bil *Proven\u00e7a-Rambla Catalunya", "district": "Eixample", "created": "2004-03-08T13:05:00Z", "cats": ["Punt verd m\u00f2bil", "Medi ambient"], "address": "Rbla Catalunya 102", "postalCode": "08008", "id": "99400075928"}}, {"geometry": {"type": "Point", "coordinates": [2.1975964166666664, 41.4200593]}, "type": "Feature", "id": "99400075967", "properties": {"neighborhood": "Sant Mart\u00ed de Proven\u00e7als", "name": "Punt Verd M\u00f2bil *Mercat de Proven\u00e7als", "district": "Sant Mart\u00ed", "created": "2004-03-08T13:48:00Z", "cats": ["Punt verd m\u00f2bil", "Medi ambient"], "address": "C Menorca 64", "postalCode": "08020", "id": "99400075967"}}, {"geometry": {"type": "Point", "coordinates": [2.168316, 41.396601516666664]}, "type": "Feature", "id": "99400075971", "properties": {"neighborhood": "la Dreta de l'Eixample", "name": "Punt Verd M\u00f2bil *Mercat de la Concepci\u00f3", "district": "Eixample", "created": "2004-03-08T13:55:00Z", "cats": ["Punt verd m\u00f2bil", "Medi ambient"], "address": "C Val\u00e8ncia 321", "postalCode": "08009", "id": "99400075971"}}, {"geometry": {"type": "Point", "coordinates": [2.2129781944444447, 41.403985041666665]}, "type": "Feature", "id": "99400075994", "properties": {"neighborhood": "Diagonal Mar i el Front Mar\u00edtim del Poblenou", "name": "Punt Verd M\u00f2bil *Passeig Taulat-Proven\u00e7als", "district": "Sant Mart\u00ed", "created": "2004-03-08T14:20:00Z", "cats": ["Punt verd m\u00f2bil", "Medi ambient"], "address": "C Proven\u00e7als 5", "postalCode": "08019", "id": "99400075994"}}, {"geometry": {"type": "Point", "coordinates": [2.1519629166666667, 41.380541658333335]}, "type": "Feature", "id": "99400075998", "properties": {"neighborhood": "la Nova Esquerra de l'Eixample", "name": "Punt Verd M\u00f2bil *Consell de Cent-Rocafort", "district": "Eixample", "created": "2004-03-08T14:29:00Z", "cats": ["Punt verd m\u00f2bil", "Medi ambient"], "address": "C Consell de Cent 104", "postalCode": "08015", "id": "99400075998"}}, {"geometry": {"type": "Point", "coordinates": [2.174726972222222, 41.39602631111111]}, "type": "Feature", "id": "99400076170", "properties": {"neighborhood": "la Dreta de l'Eixample", "name": "Punt Verd M\u00f2bil *Diputaci\u00f3-Passeig de Sant Joan", "district": "Eixample", "created": "2004-03-09T13:30:00Z", "cats": ["Punt verd m\u00f2bil", "Medi ambient"], "address": "C Diputaci\u00f3 336", "postalCode": "08009", "id": "99400076170"}}, {"geometry": {"type": "Point", "coordinates": [2.2058772222222225, 41.40093698055556]}, "type": "Feature", "id": "99400076172", "properties": {"neighborhood": "el Poblenou", "name": "Punt Verd M\u00f2bil *Mercat de la Uni\u00f3-Poblenou", "district": "Sant Mart\u00ed", "created": "2004-03-09T13:33:00Z", "cats": ["Punt verd m\u00f2bil", "Medi ambient"], "address": "C Bilbao 25", "postalCode": "08005", "id": "99400076172"}}, {"geometry": {"type": "Point", "coordinates": [2.154394, 41.38782648888889]}, "type": "Feature", "id": "99400076183", "properties": {"neighborhood": "l'Antiga Esquerra de l'Eixample", "name": "Punt Verd M\u00f2bil *Mercat del Ninot", "district": "Eixample", "created": "2004-03-09T13:50:00Z", "cats": ["Punt verd m\u00f2bil", "Medi ambient"], "address": "C Mallorca 157", "postalCode": "08036", "id": "99400076183"}}, {"geometry": {"type": "Point", "coordinates": [2.208854666666667, 41.422652875]}, "type": "Feature", "id": "99400076185", "properties": {"neighborhood": "la Verneda i la Pau", "name": "Punt Verd M\u00f2bil *Pla\u00e7a de la Pau", "district": "Sant Mart\u00ed", "created": "2004-03-09T13:53:00Z", "cats": ["Punt verd m\u00f2bil", "Medi ambient"], "address": "C Concili de Trento 309", "postalCode": "08020", "id": "99400076185"}}, {"geometry": {"type": "Point", "coordinates": [2.160399527777778, 41.38952685833333]}, "type": "Feature", "id": "99400076188", "properties": {"neighborhood": "l'Antiga Esquerra de l'Eixample", "name": "Punt Verd M\u00f2bil *Pla\u00e7a Doctor Letamendi", "district": "Eixample", "created": "2004-03-09T13:56:00Z", "cats": ["Punt verd m\u00f2bil", "Medi ambient"], "address": "Pl Doctor Letamendi 24", "postalCode": "08007", "id": "99400076188"}}, {"geometry": {"type": "Point", "coordinates": [2.173262583333333, 41.39113695277778]}, "type": "Feature", "id": "99400076193", "properties": {"neighborhood": "la Dreta de l'Eixample", "name": "Punt Verd M\u00f2bil *Casp-Bruc", "district": "Eixample", "created": "2004-03-09T14:07:00Z", "cats": ["Punt verd m\u00f2bil", "Medi ambient"], "address": "C Casp 52", "postalCode": "08010", "id": "99400076193"}}, {"geometry": {"type": "Point", "coordinates": [2.181122888888889, 41.414470369444444]}, "type": "Feature", "id": "99400076199", "properties": {"neighborhood": "el Camp de l'Arpa del Clot", "name": "Punt Verd M\u00f2bil *Ind\u00fastria-Passeig Maragall", "district": "Sant Mart\u00ed", "created": "2004-03-09T14:16:00Z", "cats": ["Punt verd m\u00f2bil", "Medi ambient"], "address": "Pg Maragall 22", "postalCode": "08026", "id": "99400076199"}}, {"geometry": {"type": "Point", "coordinates": [2.207823638888889, 41.43621544444444]}, "type": "Feature", "id": "99400076388", "properties": {"neighborhood": "el Bon Pastor", "name": "Punt Verd M\u00f2bil *Mercat Bon Pastor", "district": "Sant Andreu", "created": "2004-03-11T11:15:00Z", "cats": ["Punt verd m\u00f2bil", "Medi ambient"], "address": "C Sant Adri\u00e0 192", "postalCode": "08030", "id": "99400076388"}}, {"geometry": {"type": "Point", "coordinates": [2.1970252777777777, 41.403146480555556]}, "type": "Feature", "id": "99400076498", "properties": {"neighborhood": "el Poblenou", "name": "Punt Verd M\u00f2bil *Rambla Poblenou-Sancho de Avila", "district": "Sant Mart\u00ed", "created": "2004-03-11T17:18:00Z", "cats": ["Punt verd m\u00f2bil", "Medi ambient"], "address": "C Sancho de Avila 180", "postalCode": "08018", "id": "99400076498"}}, {"geometry": {"type": "Point", "coordinates": [2.1632959166666668, 41.37835545833333]}, "type": "Feature", "id": "99400076499", "properties": {"neighborhood": "Sant Antoni", "name": "Punt Verd M\u00f2bil *Mercat de Sant Antoni", "district": "Eixample", "created": "2004-03-11T17:21:00Z", "cats": ["Punt verd m\u00f2bil", "Medi ambient"], "address": "Rda Sant Pau 79", "postalCode": "08015", "id": "99400076499"}}, {"geometry": {"type": "Point", "coordinates": [2.199109722222222, 41.3918932]}, "type": "Feature", "id": "99400076500", "properties": {"neighborhood": "la Vila Ol\u00edmpica del Poblenou", "name": "Punt Verd M\u00f2bil *Avinguda Ic\u00e0ria-Arquitecte Sert", "district": "Sant Mart\u00ed", "created": "2004-03-11T17:27:00Z", "cats": ["Punt verd m\u00f2bil", "Medi ambient"], "address": "Av Ic\u00e0ria 174", "postalCode": "08005", "id": "99400076500"}}, {"geometry": {"type": "Point", "coordinates": [2.2152463055555556, 41.4113967]}, "type": "Feature", "id": "99400076501", "properties": {"neighborhood": "el Bes\u00f2s i el Maresme", "name": "Punt Verd M\u00f2bil *Diagonal Mar", "district": "Sant Mart\u00ed", "created": "2004-03-11T17:29:00Z", "cats": ["Punt verd m\u00f2bil", "Medi ambient"], "address": "C Llull 379", "postalCode": "08019", "id": "99400076501"}}, {"geometry": {"type": "Point", "coordinates": [2.1646685555555556, 41.402773169444444]}, "type": "Feature", "id": "99400076502", "properties": {"neighborhood": "el Camp d'en Grassot i Gr\u00e0cia Nova", "name": "Punt Verd M\u00f2bil *Passeig Sant Joan-Ind\u00fastria", "district": "Gr\u00e0cia", "created": "2004-03-11T17:37:00Z", "cats": ["Punt verd m\u00f2bil", "Medi ambient"], "address": "Pg Sant Joan 169", "postalCode": "08037", "id": "99400076502"}}, {"geometry": {"type": "Point", "coordinates": [2.1319156944444444, 41.39090330277778]}, "type": "Feature", "id": "99400076503", "properties": {"neighborhood": "Les Corts", "name": "Punt Verd M\u00f2bil *Num\u00e0ncia-Nau Santa Maria", "district": "Les Corts", "created": "2004-03-11T17:40:00Z", "cats": ["Punt verd m\u00f2bil", "Medi ambient"], "address": "C Num\u00e0ncia 180", "postalCode": "08017", "id": "99400076503"}}, {"geometry": {"type": "Point", "coordinates": [2.144037361111111, 41.39691129166667]}, "type": "Feature", "id": "99400076504", "properties": {"neighborhood": "Sant Gervasi - Galvany", "name": "Punt Verd M\u00f2bil *Mercat de Galvany", "district": "Sarri\u00e0-Sant Gervasi", "created": "2004-03-11T17:42:00Z", "cats": ["Punt verd m\u00f2bil", "Medi ambient"], "address": "C Santal\u00f3 65", "postalCode": "08021", "id": "99400076504"}}, {"geometry": {"type": "Point", "coordinates": [2.158157777777778, 41.40287644166666]}, "type": "Feature", "id": "99400076505", "properties": {"neighborhood": "la Vila de Gr\u00e0cia", "name": "Punt Verd M\u00f2bil *Pla\u00e7a Revoluci\u00f3-Terol", "district": "Gr\u00e0cia", "created": "2004-03-11T17:44:00Z", "cats": ["Punt verd m\u00f2bil", "Medi ambient"], "address": "Pl Revoluci\u00f3 Setembre 1868 5", "postalCode": "08012", "id": "99400076505"}}, {"geometry": {"type": "Point", "coordinates": [2.121592361111111, 41.39966006388889]}, "type": "Feature", "id": "99400076506", "properties": {"neighborhood": "Sarri\u00e0", "name": "Punt Verd M\u00f2bil *Pla\u00e7a Sarri\u00e0", "district": "Sarri\u00e0-Sant Gervasi", "created": "2004-03-11T17:45:00Z", "cats": ["Punt verd m\u00f2bil", "Medi ambient"], "address": "C Major de Sarri\u00e0 97", "postalCode": "08017", "id": "99400076506"}}, {"geometry": {"type": "Point", "coordinates": [2.164506, 41.410369394444444]}, "type": "Feature", "id": "99400076508", "properties": {"neighborhood": "el Baix Guinard\u00f3", "name": "Punt Verd M\u00f2bil *Mercat Estrella", "district": "Horta-Guinard\u00f3", "created": "2004-03-11T18:07:00Z", "cats": ["Punt verd m\u00f2bil", "Medi ambient"], "address": "C Pi i Margall 94", "postalCode": "08025", "id": "99400076508"}}, {"geometry": {"type": "Point", "coordinates": [2.1165365, 41.37782604444445]}, "type": "Feature", "id": "99400076509", "properties": {"neighborhood": "la Maternitat i Sant Ramon", "name": "Punt Verd M\u00f2bil *Cardenal Reig-Sant Ramon Nonat", "district": "Les Corts", "created": "2004-03-11T18:09:00Z", "cats": ["Punt verd m\u00f2bil", "Medi ambient"], "address": "Av Sant Ramon Nonat 38", "postalCode": "08028", "id": "99400076509"}}, {"geometry": {"type": "Point", "coordinates": [2.1374701666666667, 41.405961347222224]}, "type": "Feature", "id": "99400076510", "properties": {"neighborhood": "Sant Gervasi - la Bonanova", "name": "Punt Verd M\u00f2bil *Mercat de Sant Gervasi", "district": "Sarri\u00e0-Sant Gervasi", "created": "2004-03-11T18:10:00Z", "cats": ["Punt verd m\u00f2bil", "Medi ambient"], "address": "Pl Frederic Soler 6", "postalCode": "08022", "id": "99400076510"}}, {"geometry": {"type": "Point", "coordinates": [2.1752340555555554, 41.42134220833333]}, "type": "Feature", "id": "99400076511", "properties": {"neighborhood": "el Guinard\u00f3", "name": "Punt Verd M\u00f2bil *Pla\u00e7a Guinard\u00f3", "district": "Horta-Guinard\u00f3", "created": "2004-03-11T18:13:00Z", "cats": ["Punt verd m\u00f2bil", "Medi ambient"], "address": "Pl Guinard\u00f3 10", "postalCode": "08041", "id": "99400076511"}}, {"geometry": {"type": "Point", "coordinates": [2.121643027777778, 41.39046335555555]}, "type": "Feature", "id": "99400076514", "properties": {"neighborhood": "Sarri\u00e0", "name": "Punt Verd M\u00f2bil *Passeig Manuel Girona-Pedro i Pons", "district": "Sarri\u00e0-Sant Gervasi", "created": "2004-03-11T18:15:00Z", "cats": ["Punt verd m\u00f2bil", "Medi ambient"], "address": "Pg Manuel Girona 13", "postalCode": "08034", "id": "99400076514"}}, {"geometry": {"type": "Point", "coordinates": [2.168933722222222, 41.41056617222222]}, "type": "Feature", "id": "99400076515", "properties": {"neighborhood": "el Baix Guinard\u00f3", "name": "Punt Verd M\u00f2bil *Lepant-Taxdirt", "district": "Horta-Guinard\u00f3", "created": "2004-03-11T18:17:00Z", "cats": ["Punt verd m\u00f2bil", "Medi ambient"], "address": "C Lepant 410", "postalCode": "08025", "id": "99400076515"}}, {"geometry": {"type": "Point", "coordinates": [2.134401, 41.38750789722222]}, "type": "Feature", "id": "99400076516", "properties": {"neighborhood": "Les Corts", "name": "Punt Verd M\u00f2bil *D\u00e9u i Mata-Num\u00e0ncia", "district": "Les Corts", "created": "2004-03-11T18:19:00Z", "cats": ["Punt verd m\u00f2bil", "Medi ambient"], "address": "C Num\u00e0ncia 141", "postalCode": "08029", "id": "99400076516"}}, {"geometry": {"type": "Point", "coordinates": [2.1341443055555556, 41.40665042777778]}, "type": "Feature", "id": "99400076518", "properties": {"neighborhood": "Sant Gervasi - la Bonanova", "name": "Punt Verd M\u00f2bil *Pla\u00e7a Bonanova-Passeig Bonanova", "district": "Sarri\u00e0-Sant Gervasi", "created": "2004-03-11T18:20:00Z", "cats": ["Punt verd m\u00f2bil", "Medi ambient"], "address": "Pl Bonanova 4", "postalCode": "08022", "id": "99400076518"}}, {"geometry": {"type": "Point", "coordinates": [2.1429359722222223, 41.38896540555555]}, "type": "Feature", "id": "99400076519", "properties": {"neighborhood": "Les Corts", "name": "Punt Verd M\u00f2bil *Avinguda Josep Tarradellas-Gelabert", "district": "Les Corts", "created": "2004-03-11T18:22:00Z", "cats": ["Punt verd m\u00f2bil", "Medi ambient"], "address": "Av Josep Tarradellas 117", "postalCode": "08029", "id": "99400076519"}}, {"geometry": {"type": "Point", "coordinates": [2.121897833333333, 41.376045947222224]}, "type": "Feature", "id": "99400076520", "properties": {"neighborhood": "la Maternitat i Sant Ramon", "name": "Punt Verd M\u00f2bil *Riera Blanca-Sants", "district": "Les Corts", "created": "2004-03-11T18:24:00Z", "cats": ["Punt verd m\u00f2bil", "Medi ambient"], "address": "C Sants 390", "postalCode": "08028", "id": "99400076520"}}, {"geometry": {"type": "Point", "coordinates": [2.1052470555555556, 41.39470763888889]}, "type": "Feature", "id": "99400076522", "properties": {"neighborhood": "Pedralbes", "name": "Contenidor de Sal *Avinguda Pearson - Panam\u00e1", "district": "Les Corts", "created": "2004-03-11T18:32:00Z", "cats": ["Contenidors de sal", "Medi ambient"], "address": "C Panam\u00e0 27", "postalCode": "08034", "id": "99400076522"}}, {"geometry": {"type": "Point", "coordinates": [2.1326740555555554, 41.418979380555555]}, "type": "Feature", "id": "99400076539", "properties": {"neighborhood": "Vallcarca i els Penitents", "name": "Contenidor de Sal *Collserola - August Font", "district": "Gr\u00e0cia", "created": "2004-03-12T09:14:00Z", "cats": ["Contenidors de sal", "Medi ambient"], "address": "C August Font 32", "postalCode": "08035", "id": "99400076539"}}, {"geometry": {"type": "Point", "coordinates": [2.1681858888888885, 41.43532455833333]}, "type": "Feature", "id": "99400076566", "properties": {"neighborhood": "Can Peguera", "name": "Contenidor de Sal *Parc Central de Nou Barris", "district": "Nou Barris", "created": "2004-03-12T11:04:00Z", "cats": ["Contenidors de sal", "Medi ambient"], "address": "Pl C\u00e8sar Vallejo 1*LX", "postalCode": "08042", "id": "99400076566"}}, {"geometry": {"type": "Point", "coordinates": [2.1099304722222225, 41.413040402777774]}, "type": "Feature", "id": "99400076573", "properties": {"neighborhood": "Vallvidrera, el Tibidabo i les Planes", "name": "Contenidor de Sal *Cam\u00ed Bosc\u00e0", "district": "Sarri\u00e0-Sant Gervasi", "created": "2004-03-12T11:48:00Z", "cats": ["Contenidors de sal", "Medi ambient"], "address": "Cam\u00ed Bosc\u00e0 4", "postalCode": "08017", "id": "99400076573"}}, {"geometry": {"type": "Point", "coordinates": [2.111443472222222, 41.414166438888884]}, "type": "Feature", "id": "99400076574", "properties": {"neighborhood": "Vallvidrera, el Tibidabo i les Planes", "name": "Contenidor de Sal *Torrent Font Mont", "district": "Sarri\u00e0-Sant Gervasi", "created": "2004-03-12T11:49:00Z", "cats": ["Contenidors de sal", "Medi ambient"], "address": "T Font del Mont 2", "postalCode": "08017", "id": "99400076574"}}, {"geometry": {"type": "Point", "coordinates": [2.11265175, 41.41425866388889]}, "type": "Feature", "id": "99400076575", "properties": {"neighborhood": "Vallvidrera, el Tibidabo i les Planes", "name": "Contenidor de Sal *Font del Mont - Escales Passatge Font del Mont", "district": "Sarri\u00e0-Sant Gervasi", "created": "2004-03-12T11:51:00Z", "cats": ["Contenidors de sal", "Medi ambient"], "address": "C Font del Mont 50", "postalCode": "08017", "id": "99400076575"}}, {"geometry": {"type": "Point", "coordinates": [2.1190526666666667, 41.42089324166666]}, "type": "Feature", "id": "99400076576", "properties": {"neighborhood": "Vallvidrera, el Tibidabo i les Planes", "name": "Contenidor de Sal *Col\u00f2nia Tibidabo - Cam\u00ed Vallvidrera al Tibidabo", "district": "Sarri\u00e0-Sant Gervasi", "created": "2004-03-12T11:53:00Z", "cats": ["Contenidors de sal", "Medi ambient"], "address": "C Col\u00f2nia del Tibidabo 1", "postalCode": "08035", "id": "99400076576"}}, {"geometry": {"type": "Point", "coordinates": [2.116245, 41.42209047777777]}, "type": "Feature", "id": "99400076578", "properties": {"neighborhood": "Vallvidrera, el Tibidabo i les Planes", "name": "Contenidor de Sal *Cam\u00ed de Cal Totxo - Cam\u00ed de Sant Cugat", "district": "Sarri\u00e0-Sant Gervasi", "created": "2004-03-12T11:54:00Z", "cats": ["Contenidors de sal", "Medi ambient"], "address": "Cam\u00ed Sant Cugat 27", "postalCode": "08035", "id": "99400076578"}}, {"geometry": {"type": "Point", "coordinates": [2.1009425833333335, 41.41229692222222]}, "type": "Feature", "id": "99400076748", "properties": {"neighborhood": "Vallvidrera, el Tibidabo i les Planes", "name": "Contenidor de Sal *Espinagosa - Fonolleda", "district": "Sarri\u00e0-Sant Gervasi", "created": "2004-03-15T13:14:00Z", "cats": ["Contenidors de sal", "Medi ambient"], "address": "C Fonolleda 3", "postalCode": "08017", "id": "99400076748"}}, {"geometry": {"type": "Point", "coordinates": [2.103186888888889, 41.412352825]}, "type": "Feature", "id": "99400076750", "properties": {"neighborhood": "Vallvidrera, el Tibidabo i les Planes", "name": "Contenidor de Sal *Passatge del Negociant - Casetes", "district": "Sarri\u00e0-Sant Gervasi", "created": "2004-03-15T13:16:00Z", "cats": ["Contenidors de sal", "Medi ambient"], "address": "Ptge Negociant 2", "postalCode": "08017", "id": "99400076750"}}, {"geometry": {"type": "Point", "coordinates": [2.1004764444444444, 41.41148745555555]}, "type": "Feature", "id": "99400076851", "properties": {"neighborhood": "Vallvidrera, el Tibidabo i les Planes", "name": "Contenidor de Sal *Ginestera - Cam\u00ed del Mol\u00ed", "district": "Sarri\u00e0-Sant Gervasi", "created": "2004-03-16T09:13:00Z", "cats": ["Contenidors de sal", "Medi ambient"], "address": "C Ginestera 21", "postalCode": "08017", "id": "99400076851"}}, {"geometry": {"type": "Point", "coordinates": [2.095041638888889, 41.41549781944444]}, "type": "Feature", "id": "99400076877", "properties": {"neighborhood": "Vallvidrera, el Tibidabo i les Planes", "name": "Contenidor de Sal *Cam\u00ed Mas Saur\u00f3 - Passatge Mas Saur\u00f3", "district": "Sarri\u00e0-Sant Gervasi", "created": "2004-03-16T11:06:00Z", "cats": ["Contenidors de sal", "Medi ambient"], "address": "Cam\u00ed Mas Saur\u00f3 33", "postalCode": "08017", "id": "99400076877"}}, {"geometry": {"type": "Point", "coordinates": [2.0925308333333335, 41.415551530555554]}, "type": "Feature", "id": "99400076878", "properties": {"neighborhood": "Vallvidrera, el Tibidabo i les Planes", "name": "Contenidor de Sal *Mas Saur\u00f3 - Cam\u00ed de Pebr\u00e0s - Rotonda Gir Bus", "district": "Sarri\u00e0-Sant Gervasi", "created": "2004-03-16T11:08:00Z", "cats": ["Contenidors de sal", "Medi ambient"], "address": "Cam\u00ed Mas Saur\u00f3 1", "postalCode": "08017", "id": "99400076878"}}, {"geometry": {"type": "Point", "coordinates": [2.096296611111111, 41.41752474166666]}, "type": "Feature", "id": "99400076881", "properties": {"neighborhood": "Vallvidrera, el Tibidabo i les Planes", "name": "Contenidor de Sal *Cam\u00ed Mas Saur\u00f3", "district": "Sarri\u00e0-Sant Gervasi", "created": "2004-03-16T11:10:00Z", "cats": ["Contenidors de sal", "Medi ambient"], "address": "Cam\u00ed Mas Saur\u00f3 53", "postalCode": "08017", "id": "99400076881"}}, {"geometry": {"type": "Point", "coordinates": [2.0967272500000003, 41.41915306666667]}, "type": "Feature", "id": "99400076882", "properties": {"neighborhood": "Vallvidrera, el Tibidabo i les Planes", "name": "Contenidor de Sal *Torrent del Rovell\u00f3 - Cam\u00ed del Pant\u00e0", "district": "Sarri\u00e0-Sant Gervasi", "created": "2004-03-16T11:11:00Z", "cats": ["Contenidors de sal", "Medi ambient"], "address": "T Rovell\u00f3 1", "postalCode": "08017", "id": "99400076882"}}, {"geometry": {"type": "Point", "coordinates": [2.094804888888889, 41.41840994166667]}, "type": "Feature", "id": "99400076884", "properties": {"neighborhood": "Vallvidrera, el Tibidabo i les Planes", "name": "Contenidor de Sal *Torrent Rovell\u00f3 - Cam\u00ed de la Font dels Pins", "district": "Sarri\u00e0-Sant Gervasi", "created": "2004-03-16T11:15:00Z", "cats": ["Contenidors de sal", "Medi ambient"], "address": "T Rovell\u00f3 17", "postalCode": "08017", "id": "99400076884"}}, {"geometry": {"type": "Point", "coordinates": [2.0956864444444445, 41.421656352777774]}, "type": "Feature", "id": "99400076889", "properties": {"neighborhood": "Vallvidrera, el Tibidabo i les Planes", "name": "Contenidor de Sal *Major Rectoret - Escola Vil\u00b7la Joana", "district": "Sarri\u00e0-Sant Gervasi", "created": "2004-03-16T11:27:00Z", "cats": ["Contenidors de sal", "Medi ambient"], "address": "C Major del Rectoret 15", "postalCode": "08017", "id": "99400076889"}}, {"geometry": {"type": "Point", "coordinates": [2.094773527777778, 41.42326788055556]}, "type": "Feature", "id": "99400076890", "properties": {"neighborhood": "Vallvidrera, el Tibidabo i les Planes", "name": "Contenidor de Sal *Major del Rectoret", "district": "Sarri\u00e0-Sant Gervasi", "created": "2004-03-16T11:29:00Z", "cats": ["Contenidors de sal", "Medi ambient"], "address": "C Major del Rectoret 27", "postalCode": "08017", "id": "99400076890"}}, {"geometry": {"type": "Point", "coordinates": [2.096986888888889, 41.42559246388889]}, "type": "Feature", "id": "99400076893", "properties": {"neighborhood": "Vallvidrera, el Tibidabo i les Planes", "name": "Contenidor de Sal *Amarant - Bohemis", "district": "Sarri\u00e0-Sant Gervasi", "created": "2004-03-16T11:38:00Z", "cats": ["Contenidors de sal", "Medi ambient"], "address": "C Bohemis 58", "postalCode": "08017", "id": "99400076893"}}, {"geometry": {"type": "Point", "coordinates": [2.09768175, 41.4246112]}, "type": "Feature", "id": "99400076894", "properties": {"neighborhood": "Vallvidrera, el Tibidabo i les Planes", "name": "Contenidor de Sal *Savina - Gard\u00e8nia", "district": "Sarri\u00e0-Sant Gervasi", "created": "2004-03-16T11:39:00Z", "cats": ["Contenidors de sal", "Medi ambient"], "address": "C Savina 4", "postalCode": "08017", "id": "99400076894"}}, {"geometry": {"type": "Point", "coordinates": [2.100376388888889, 41.42535761111111]}, "type": "Feature", "id": "99400076950", "properties": {"neighborhood": "Vallvidrera, el Tibidabo i les Planes", "name": "Contenidor de Sal *Menta - Rob\u00ednia", "district": "Sarri\u00e0-Sant Gervasi", "created": "2004-03-16T16:24:00Z", "cats": ["Contenidors de sal", "Medi ambient"], "address": "C Menta 1", "postalCode": "08017", "id": "99400076950"}}, {"geometry": {"type": "Point", "coordinates": [2.102364777777778, 41.42704281388889]}, "type": "Feature", "id": "99400076955", "properties": {"neighborhood": "Vallvidrera, el Tibidabo i les Planes", "name": "Contenidor de Sal *Pla\u00e7a Televisi\u00f3", "district": "Sarri\u00e0-Sant Gervasi", "created": "2004-03-16T17:54:00Z", "cats": ["Contenidors de sal", "Medi ambient"], "address": "C Rob\u00ednia 30", "postalCode": "08017", "id": "99400076955"}}, {"geometry": {"type": "Point", "coordinates": [2.100857388888889, 41.429481625]}, "type": "Feature", "id": "99400076956", "properties": {"neighborhood": "Vallvidrera, el Tibidabo i les Planes", "name": "Contenidor de Sal *Menta - Lil\u00e0", "district": "Sarri\u00e0-Sant Gervasi", "created": "2004-03-16T17:55:00Z", "cats": ["Contenidors de sal", "Medi ambient"], "address": "C Menta 46", "postalCode": "08017", "id": "99400076956"}}, {"geometry": {"type": "Point", "coordinates": [2.101805638888889, 41.42896193888889]}, "type": "Feature", "id": "99400076957", "properties": {"neighborhood": "Vallvidrera, el Tibidabo i les Planes", "name": "Contenidor de Sal *Via L\u00e0ctia - Rob\u00ednia", "district": "Sarri\u00e0-Sant Gervasi", "created": "2004-03-16T17:56:00Z", "cats": ["Contenidors de sal", "Medi ambient"], "address": "C Via L\u00e0ctia 20", "postalCode": "08017", "id": "99400076957"}}, {"geometry": {"type": "Point", "coordinates": [2.096611277777778, 41.4277897]}, "type": "Feature", "id": "99400076960", "properties": {"neighborhood": "Vallvidrera, el Tibidabo i les Planes", "name": "Contenidor de Sal *Pla\u00e7a Tulipa", "district": "Sarri\u00e0-Sant Gervasi", "created": "2004-03-16T17:58:00Z", "cats": ["Contenidors de sal", "Medi ambient"], "address": "Pl Tulipa 1", "postalCode": "08017", "id": "99400076960"}}, {"geometry": {"type": "Point", "coordinates": [2.0957011944444446, 41.431013694444445]}, "type": "Feature", "id": "99400076962", "properties": {"neighborhood": "Vallvidrera, el Tibidabo i les Planes", "name": "Contenidor de Sal *Major de Rectoret", "district": "Sarri\u00e0-Sant Gervasi", "created": "2004-03-16T18:00:00Z", "cats": ["Contenidors de sal", "Medi ambient"], "address": "C Major del Rectoret 168", "postalCode": "08017", "id": "99400076962"}}, {"geometry": {"type": "Point", "coordinates": [2.0940675833333335, 41.42966563333333]}, "type": "Feature", "id": "99400076963", "properties": {"neighborhood": "Vallvidrera, el Tibidabo i les Planes", "name": "Contenidor de Sal *Baladre - Malva - Costa del Bruc", "district": "Sarri\u00e0-Sant Gervasi", "created": "2004-03-16T18:02:00Z", "cats": ["Contenidors de sal", "Medi ambient"], "address": "C Baladre 54", "postalCode": "08017", "id": "99400076963"}}, {"geometry": {"type": "Point", "coordinates": [2.0920060555555557, 41.428294333333334]}, "type": "Feature", "id": "99400076964", "properties": {"neighborhood": "Vallvidrera, el Tibidabo i les Planes", "name": "Contenidor de Sal *Avinguda Rectoret - Tren", "district": "Sarri\u00e0-Sant Gervasi", "created": "2004-03-16T18:03:00Z", "cats": ["Contenidors de sal", "Medi ambient"], "address": "Av Rectoret 26", "postalCode": "08017", "id": "99400076964"}}, {"geometry": {"type": "Point", "coordinates": [2.0841265555555557, 41.42439931944444]}, "type": "Feature", "id": "99400076965", "properties": {"neighborhood": "Vallvidrera, el Tibidabo i les Planes", "name": "Contenidor de Sal *Cam\u00ed Mas Guimbau - Can Castellv\u00ed", "district": "Sarri\u00e0-Sant Gervasi", "created": "2004-03-16T18:05:00Z", "cats": ["Contenidors de sal", "Medi ambient"], "address": "C Can Castellv\u00ed 34", "postalCode": "08017", "id": "99400076965"}}, {"geometry": {"type": "Point", "coordinates": [2.088097138888889, 41.42648168611111]}, "type": "Feature", "id": "99400076966", "properties": {"neighborhood": "Vallvidrera, el Tibidabo i les Planes", "name": "Contenidor de Sal *Cam\u00ed dels Verns - Cam\u00ed Pla Lloren\u00e7 - Girada Gespa", "district": "Sarri\u00e0-Sant Gervasi", "created": "2004-03-16T18:06:00Z", "cats": ["Contenidors de sal", "Medi ambient"], "address": "Cam\u00ed Verns 17", "postalCode": "08017", "id": "99400076966"}}, {"geometry": {"type": "Point", "coordinates": [2.090549027777778, 41.42440940833333]}, "type": "Feature", "id": "99400076967", "properties": {"neighborhood": "Vallvidrera, el Tibidabo i les Planes", "name": "Contenidor de Sal *Cam\u00ed de Mas Guimbau - Gespa", "district": "Sarri\u00e0-Sant Gervasi", "created": "2004-03-16T18:07:00Z", "cats": ["Contenidors de sal", "Medi ambient"], "address": "C Gespa 39", "postalCode": "08017", "id": "99400076967"}}, {"geometry": {"type": "Point", "coordinates": [2.087822666666667, 41.42304666944444]}, "type": "Feature", "id": "99400076968", "properties": {"neighborhood": "Vallvidrera, el Tibidabo i les Planes", "name": "Contenidor de Sal *Passeig Vimetera - Passeig Pi Forcat", "district": "Sarri\u00e0-Sant Gervasi", "created": "2004-03-16T18:08:00Z", "cats": ["Contenidors de sal", "Medi ambient"], "address": "Pg Pi Forcat 14", "postalCode": "08017", "id": "99400076968"}}, {"geometry": {"type": "Point", "coordinates": [2.0855371944444445, 41.42118419166666]}, "type": "Feature", "id": "99400076969", "properties": {"neighborhood": "Vallvidrera, el Tibidabo i les Planes", "name": "Contenidor de Sal *Passeig Gr\u00e8vol - Cam\u00ed Can Castellv\u00ed", "district": "Sarri\u00e0-Sant Gervasi", "created": "2004-03-16T18:09:00Z", "cats": ["Contenidors de sal", "Medi ambient"], "address": "Pg Gr\u00e8vol 1", "postalCode": "08017", "id": "99400076969"}}, {"geometry": {"type": "Point", "coordinates": [2.0863861944444446, 41.421623777777775]}, "type": "Feature", "id": "99400076970", "properties": {"neighborhood": "Vallvidrera, el Tibidabo i les Planes", "name": "Contenidor de Sal *Passeig Gr\u00e8vol", "district": "Sarri\u00e0-Sant Gervasi", "created": "2004-03-16T18:11:00Z", "cats": ["Contenidors de sal", "Medi ambient"], "address": "Pg Gr\u00e8vol 12", "postalCode": "08017", "id": "99400076970"}}, {"geometry": {"type": "Point", "coordinates": [2.08749375, 41.42186496111111]}, "type": "Feature", "id": "99400076971", "properties": {"neighborhood": "Vallvidrera, el Tibidabo i les Planes", "name": "Contenidor de Sal *Passeig Gr\u00e8vol - Passeig Pi Forcat", "district": "Sarri\u00e0-Sant Gervasi", "created": "2004-03-16T18:12:00Z", "cats": ["Contenidors de sal", "Medi ambient"], "address": "Pg Gr\u00e8vol 22", "postalCode": "08017", "id": "99400076971"}}, {"geometry": {"type": "Point", "coordinates": [2.0887698611111114, 41.42327680555555]}, "type": "Feature", "id": "99400076972", "properties": {"neighborhood": "Vallvidrera, el Tibidabo i les Planes", "name": "Contenidor de Sal *Passeig Vimetera", "district": "Sarri\u00e0-Sant Gervasi", "created": "2004-03-16T18:21:00Z", "cats": ["Contenidors de sal", "Medi ambient"], "address": "Pg Vimetera 34", "postalCode": "08017", "id": "99400076972"}}, {"geometry": {"type": "Point", "coordinates": [2.0900224166666668, 41.42347114166667]}, "type": "Feature", "id": "99400076973", "properties": {"neighborhood": "Vallvidrera, el Tibidabo i les Planes", "name": "Contenidor de Sal *Passeig Vimetera - Gespa", "district": "Sarri\u00e0-Sant Gervasi", "created": "2004-03-16T18:22:00Z", "cats": ["Contenidors de sal", "Medi ambient"], "address": "Pg Vimetera 7", "postalCode": "08017", "id": "99400076973"}}, {"geometry": {"type": "Point", "coordinates": [2.089076527777778, 41.427469080555554]}, "type": "Feature", "id": "99400076976", "properties": {"neighborhood": "Vallvidrera, el Tibidabo i les Planes", "name": "Contenidor de Sal *Sol\u00e9 i Pla - Pi", "district": "Sarri\u00e0-Sant Gervasi", "created": "2004-03-16T18:25:00Z", "cats": ["Contenidors de sal", "Medi ambient"], "address": "Pg Sol\u00e9 i Pla 15", "postalCode": "08017", "id": "99400076976"}}, {"geometry": {"type": "Point", "coordinates": [2.085511305555556, 41.42754431944444]}, "type": "Feature", "id": "99400076977", "properties": {"neighborhood": "Vallvidrera, el Tibidabo i les Planes", "name": "Contenidor de Sal *Cam\u00ed Bellavista - Escales Bellavista", "district": "Sarri\u00e0-Sant Gervasi", "created": "2004-03-16T18:26:00Z", "cats": ["Contenidors de sal", "Medi ambient"], "address": "Cam\u00ed Bellavista 2", "postalCode": "08017", "id": "99400076977"}}, {"geometry": {"type": "Point", "coordinates": [2.083587777777778, 41.42025457222222]}, "type": "Feature", "id": "99400076978", "properties": {"neighborhood": "Vallvidrera, el Tibidabo i les Planes", "name": "Contenidor de Sal *Cam\u00ed Can Balasch - Cam\u00ed Tur\u00f3 de l'Alzina", "district": "Sarri\u00e0-Sant Gervasi", "created": "2004-03-16T18:28:00Z", "cats": ["Contenidors de sal", "Medi ambient"], "address": "Cam\u00ed Tur\u00f3 de l'Alzina 2", "postalCode": "08017", "id": "99400076978"}}, {"geometry": {"type": "Point", "coordinates": [2.138567361111111, 41.426772919444446]}, "type": "Feature", "id": "99400076979", "properties": {"neighborhood": "Sant Gen\u00eds dels Agudells", "name": "Contenidor de Sal *Escola Oficial d'Idiomes", "district": "Horta-Guinard\u00f3", "created": "2004-03-16T18:29:00Z", "cats": ["Contenidors de sal", "Medi ambient"], "address": "Av Jord\u00e0 18", "postalCode": "08035", "id": "99400076979"}}, {"geometry": {"type": "Point", "coordinates": [2.165588194444444, 41.41697911111111]}, "type": "Feature", "id": "99400076980", "properties": {"neighborhood": "Can Bar\u00f3", "name": "Contenidor de Sal *Associaci\u00f3 Ve\u00efns Font Castellana", "district": "Horta-Guinard\u00f3", "created": "2004-03-16T18:30:00Z", "cats": ["Contenidors de sal", "Medi ambient"], "address": "C Francesc Alegre 31", "postalCode": "08024", "id": "99400076980"}}, {"geometry": {"type": "Point", "coordinates": [2.1757423055555556, 41.41238593888889]}, "type": "Feature", "id": "99400076981", "properties": {"neighborhood": "el Guinard\u00f3", "name": "Contenidor de Sal *Hospital de la Santa Creu i Sant Pau", "district": "Horta-Guinard\u00f3", "created": "2004-03-16T18:31:00Z", "cats": ["Contenidors de sal", "Medi ambient"], "address": "C Sant Antoni Maria Claret 167", "postalCode": "08025", "id": "99400076981"}}, {"geometry": {"type": "Point", "coordinates": [2.1404054444444442, 41.426240138888886]}, "type": "Feature", "id": "99400076987", "properties": {"neighborhood": "Montbau", "name": "Contenidor de Sal *Hospital Sant Rafael", "district": "Horta-Guinard\u00f3", "created": "2004-03-16T18:35:00Z", "cats": ["Contenidors de sal", "Medi ambient"], "address": "Pg Vall d'Hebron 107", "postalCode": "08035", "id": "99400076987"}}, {"geometry": {"type": "Point", "coordinates": [2.1335315833333333, 41.43286803333333]}, "type": "Feature", "id": "99400076989", "properties": {"neighborhood": "Montbau", "name": "Contenidor de Sal *Carretera Arrabassada - Acc\u00e9s Zoonosi", "district": "Horta-Guinard\u00f3", "created": "2004-03-16T18:38:00Z", "cats": ["Contenidors de sal", "Medi ambient"], "address": "Ctra Sant Cugat 250", "postalCode": "08035", "id": "99400076989"}}, {"geometry": {"type": "Point", "coordinates": [2.172818694444444, 41.44644383611111]}, "type": "Feature", "id": "99400076990", "properties": {"neighborhood": "les Roquetes", "name": "Contenidor de Sal *Institut Escola Roquetes", "district": "Nou Barris", "created": "2004-03-16T18:41:00Z", "cats": ["Contenidors de sal", "Medi ambient"], "address": "C Alc\u00e1ntara 22", "postalCode": "08042", "id": "99400076990"}}, {"geometry": {"type": "Point", "coordinates": [2.171212111111111, 41.43681431666666]}, "type": "Feature", "id": "99400076991", "properties": {"neighborhood": "la Guineueta", "name": "Contenidor de Sal *Seu Districte Nou Barris", "district": "Nou Barris", "created": "2004-03-16T18:42:00Z", "cats": ["Contenidors de sal", "Medi ambient"], "address": "Pl Major de Nou Barris 1", "postalCode": "08042", "id": "99400076991"}}, {"geometry": {"type": "Point", "coordinates": [2.177794361111111, 41.4616873]}, "type": "Feature", "id": "99400076992", "properties": {"neighborhood": "Ciutat Meridiana", "name": "Contenidor de Sal *Mercat Ciutat Meridiana", "district": "Nou Barris", "created": "2004-03-16T18:43:00Z", "cats": ["Contenidors de sal", "Medi ambient"], "address": "C Costabona 4", "postalCode": "08033", "id": "99400076992"}}, {"geometry": {"type": "Point", "coordinates": [2.1860884166666663, 41.453574769444444]}, "type": "Feature", "id": "99400076993", "properties": {"neighborhood": "la Trinitat Nova", "name": "Contenidor de Sal *Escola Sant Josep Oriol", "district": "Nou Barris", "created": "2004-03-16T18:45:00Z", "cats": ["Contenidors de sal", "Medi ambient"], "address": "C Aiguablava 121", "postalCode": "08033", "id": "99400076993"}}, {"geometry": {"type": "Point", "coordinates": [2.1814105277777776, 41.460384350000005]}, "type": "Feature", "id": "99400076996", "properties": {"neighborhood": "Torre Bar\u00f3", "name": "Contenidor de Sal *Institut Pablo Ruiz Picasso", "district": "Nou Barris", "created": "2004-03-16T18:49:00Z", "cats": ["Contenidors de sal", "Medi ambient"], "address": "Av Escolapi C\u00e0ncer 2", "postalCode": "08033", "id": "99400076996"}}, {"geometry": {"type": "Point", "coordinates": [2.1547938055555553, 41.41053714722222]}, "type": "Feature", "id": "99400077016", "properties": {"neighborhood": "la Salut", "name": "Contenidor de Sal *Hospital Esperan\u00e7a", "district": "Gr\u00e0cia", "created": "2004-03-17T11:34:00Z", "cats": ["Contenidors de sal", "Medi ambient"], "address": "Av Santuari S Josep Muntany 12", "postalCode": "08024", "id": "99400077016"}}, {"geometry": {"type": "Point", "coordinates": [2.1112520277777778, 41.41809454722222]}, "type": "Feature", "id": "99400077017", "properties": {"neighborhood": "Vallvidrera, el Tibidabo i les Planes", "name": "Contenidor de Sal *Gabriel Ferrater - Budellera", "district": "Sarri\u00e0-Sant Gervasi", "created": "2004-03-17T11:36:00Z", "cats": ["Contenidors de sal", "Medi ambient"], "address": "C Gabriel Ferrater 27", "postalCode": "08017", "id": "99400077017"}}, {"geometry": {"type": "Point", "coordinates": [2.16522025, 41.422632586111106]}, "type": "Feature", "id": "99400077024", "properties": {"neighborhood": "la Font d'en Fargues", "name": "Contenidor de Sal *Escola Font d'en Fargas", "district": "Horta-Guinard\u00f3", "created": "2004-03-17T11:53:00Z", "cats": ["Contenidors de sal", "Medi ambient"], "address": "Pg Font d'en Fargas 65", "postalCode": "08032", "id": "99400077024"}}, {"geometry": {"type": "Point", "coordinates": [2.182549611111111, 41.462666761111116]}, "type": "Feature", "id": "99400077026", "properties": {"neighborhood": "Vallbona", "name": "Contenidor de Sal *Escola Ciutat Comtal", "district": "Nou Barris", "created": "2004-03-17T11:55:00Z", "cats": ["Contenidors de sal", "Medi ambient"], "address": "C Pujalt 4", "postalCode": "08033", "id": "99400077026"}}, {"geometry": {"type": "Point", "coordinates": [2.0897856666666668, 41.426580438888884]}, "type": "Feature", "id": "99400077029", "properties": {"neighborhood": "Vallvidrera, el Tibidabo i les Planes", "name": "Contenidor de Sal *Cam\u00ed Mas Guimbau - Pollancre", "district": "Sarri\u00e0-Sant Gervasi", "created": "2004-03-17T12:01:00Z", "cats": ["Contenidors de sal", "Medi ambient"], "address": "C Pollancre 1", "postalCode": "08017", "id": "99400077029"}}, {"geometry": {"type": "Point", "coordinates": [2.095869527777778, 41.41794630833333]}, "type": "Feature", "id": "99400077031", "properties": {"neighborhood": "Vallvidrera, el Tibidabo i les Planes", "name": "Contenidor de Sal *Cam\u00ed Alt de Mas Saur\u00f3 - Transformador", "district": "Sarri\u00e0-Sant Gervasi", "created": "2004-03-17T12:04:00Z", "cats": ["Contenidors de sal", "Medi ambient"], "address": "Cam\u00ed Reineta 8", "postalCode": "08017", "id": "99400077031"}}, {"geometry": {"type": "Point", "coordinates": [2.0962946388888892, 41.417953580555555]}, "type": "Feature", "id": "99400077032", "properties": {"neighborhood": "Vallvidrera, el Tibidabo i les Planes", "name": "Contenidor de Sal *Alt de Mas Saur\u00f3 - Escales Ciureny", "district": "Sarri\u00e0-Sant Gervasi", "created": "2004-03-17T12:05:00Z", "cats": ["Contenidors de sal", "Medi ambient"], "address": "Cam\u00ed Reineta 12", "postalCode": "08017", "id": "99400077032"}}, {"geometry": {"type": "Point", "coordinates": [2.1625579999999998, 41.41713409166666]}, "type": "Feature", "id": "99400077034", "properties": {"neighborhood": "Can Bar\u00f3", "name": "Contenidor de Sal *Escola Pirineu", "district": "Horta-Guinard\u00f3", "created": "2004-03-17T12:09:00Z", "cats": ["Contenidors de sal", "Medi ambient"], "address": "C Josep Serrano 64", "postalCode": "08024", "id": "99400077034"}}, {"geometry": {"type": "Point", "coordinates": [2.1796458333333333, 41.40394950277778]}, "type": "Feature", "id": "99400077113", "properties": {"neighborhood": "la Sagrada Fam\u00edlia", "name": "Contenidor de Roba Amiga *Jardins Interior Illa Flora Tristan", "district": "Eixample", "created": "2004-03-18T11:12:00Z", "cats": ["Punt de roba amiga", "Medi ambient"], "address": "C Padilla 210", "postalCode": "08013", "id": "99400077113"}}, {"geometry": {"type": "Point", "coordinates": [2.171504111111111, 41.394674941666665]}, "type": "Feature", "id": "99400077116", "properties": {"neighborhood": "la Dreta de l'Eixample", "name": "Contenidor de Roba Amiga *Biblioteca Sofia Barat", "district": "Eixample", "created": "2004-03-18T11:18:00Z", "cats": ["Punt de roba amiga", "Medi ambient"], "address": "C Girona 64", "postalCode": "08009", "id": "99400077116"}}, {"geometry": {"type": "Point", "coordinates": [2.1374526944444443, 41.359699725]}, "type": "Feature", "id": "99400077122", "properties": {"neighborhood": "la Marina de Port", "name": "Contenidor Roba Amiga * CEIP SEAT", "district": "Sants-Montju\u00efc", "created": "2004-03-18T11:53:00Z", "cats": ["Punt de roba amiga", "Medi ambient"], "address": "C Mec\u00e0nica 24", "postalCode": "08038", "id": "99400077122"}}, {"geometry": {"type": "Point", "coordinates": [2.1337674166666667, 41.35893111388889]}, "type": "Feature", "id": "99400077123", "properties": {"neighborhood": "la Marina de Port", "name": "Contenidor Roba Amiga * IES Llu\u00eds Dom\u00e8nech i Muntaner", "district": "Sants-Montju\u00efc", "created": "2004-03-18T11:54:00Z", "cats": ["Punt de roba amiga", "Medi ambient"], "address": "C Alumini 48", "postalCode": "08038", "id": "99400077123"}}, {"geometry": {"type": "Point", "coordinates": [2.1452123333333333, 41.355443236111114]}, "type": "Feature", "id": "99400077124", "properties": {"neighborhood": "la Marina de Port", "name": "Contenidor Roba Amiga * IES Montju\u00efc", "district": "Sants-Montju\u00efc", "created": "2004-03-18T11:55:00Z", "cats": ["Punt de roba amiga", "Medi ambient"], "address": "C Cisell 19", "postalCode": "08038", "id": "99400077124"}}, {"geometry": {"type": "Point", "coordinates": [2.130280361111111, 41.38491957222222]}, "type": "Feature", "id": "99400077125", "properties": {"neighborhood": "les Corts", "name": "Contenidor Roba Amiga * CEIP Ausias March", "district": "Les Corts", "created": "2004-03-18T11:57:00Z", "cats": ["Punt de roba amiga", "Medi ambient"], "address": "C Joan G\u00fcell 193", "postalCode": "08028", "id": "99400077125"}}, {"geometry": {"type": "Point", "coordinates": [2.1134636111111114, 41.376249180555554]}, "type": "Feature", "id": "99400077140", "properties": {"neighborhood": "la Maternitat i Sant Ramon", "name": "Contenidor Roba Amiga * CEIP Pau Romeva", "district": "Les Corts", "created": "2004-03-18T12:44:00Z", "cats": ["Punt de roba amiga", "Medi ambient"], "address": "C Pisuerga 1", "postalCode": "08028", "id": "99400077140"}}, {"geometry": {"type": "Point", "coordinates": [2.159896888888889, 41.36698445555555]}, "type": "Feature", "id": "99400077141", "properties": {"neighborhood": "el Poble Sec", "name": "Contenidor Roba Amiga * CEIP Tres Pins", "district": "Sants-Montju\u00efc", "created": "2004-03-18T12:45:00Z", "cats": ["Punt de roba amiga", "Medi ambient"], "address": "C Tres Pins 28", "postalCode": "08038", "id": "99400077141"}}, {"geometry": {"type": "Point", "coordinates": [2.1509855, 41.378460833333335]}, "type": "Feature", "id": "99400077217", "properties": {"neighborhood": "la Nova Esquerra de l'Eixample", "name": "Contenidor de Roba Amiga *Institut Ernest Lluch", "district": "Eixample", "created": "2004-03-19T09:30:00Z", "cats": ["Punt de roba amiga", "Medi ambient"], "address": "C Diputaci\u00f3 11", "postalCode": "08015", "id": "99400077217"}}, {"geometry": {"type": "Point", "coordinates": [2.145059361111111, 41.350716633333334]}, "type": "Feature", "id": "99400077219", "properties": {"neighborhood": "la Marina del Prat Vermell", "name": "Contenidor Roba Amiga * IES Mare de Deu de la Merc\u00e8", "district": "Sants-Montju\u00efc", "created": "2004-03-19T09:33:00Z", "cats": ["Punt de roba amiga", "Medi ambient"], "address": "C Motors 130", "postalCode": "08040", "id": "99400077219"}}, {"geometry": {"type": "Point", "coordinates": [2.1509855, 41.378460833333335]}, "type": "Feature", "id": "99400077225", "properties": {"neighborhood": "la Nova Esquerra de l'Eixample", "name": "Contenidor de Roba Amiga *Escola Joan Mir\u00f3", "district": "Eixample", "created": "2004-03-19T09:48:00Z", "cats": ["Punt de roba amiga", "Medi ambient"], "address": "C Diputaci\u00f3 21", "postalCode": "08015", "id": "99400077225"}}, {"geometry": {"type": "Point", "coordinates": [2.1474787777777777, 41.37007898888889]}, "type": "Feature", "id": "99400077227", "properties": {"neighborhood": "la Font de la Guatlla", "name": "Contenidor Roba Amiga * IES XXV Olimpiada", "district": "Sants-Montju\u00efc", "created": "2004-03-19T09:50:00Z", "cats": ["Punt de roba amiga", "Medi ambient"], "address": "C D\u00e0lia 2b", "postalCode": "08004", "id": "99400077227"}}, {"geometry": {"type": "Point", "coordinates": [2.1743983055555556, 41.373080272222225]}, "type": "Feature", "id": "99400077229", "properties": {"neighborhood": "el Poble Sec", "name": "Contenidor Roba Amiga * IES Consell de Cent", "district": "Sants-Montju\u00efc", "created": "2004-03-19T09:56:00Z", "cats": ["Punt de roba amiga", "Medi ambient"], "address": "C Carrera 25", "postalCode": "08004", "id": "99400077229"}}, {"geometry": {"type": "Point", "coordinates": [2.1439644166666665, 41.43290939722222]}, "type": "Feature", "id": "99400077231", "properties": {"neighborhood": "Montbau", "name": "Contenidor de Roba Amiga *Parr\u00f2quia Sant Jeroni", "district": "Horta-Guinard\u00f3", "created": "2004-03-19T09:59:00Z", "cats": ["Punt de roba amiga", "Medi ambient"], "address": "Pl Moss\u00e8n Ferran Palau 1", "postalCode": "08035", "id": "99400077231"}}, {"geometry": {"type": "Point", "coordinates": [2.222228305555556, 41.40843605833333]}, "type": "Feature", "id": "99400121453", "properties": {"neighborhood": "el Bes\u00f2s i el Maresme", "name": "Punt Verd de Zona - Deixalleria F\u00f2rum", "district": "Sant Mart\u00ed", "created": "2005-07-20T11:25:00Z", "cats": ["Deixalleries - Punt verd de ciutat", "Medi ambient"], "address": "Av Litoral 115", "postalCode": "08005", "id": "99400121453"}}, {"geometry": {"type": "Point", "coordinates": [2.2133468333333335, 41.41663646666667]}, "type": "Feature", "id": "99400145147", "properties": {"neighborhood": "el Bes\u00f2s i el Maresme", "name": "Punt Verd M\u00f2bil *Rambla Prim-Crist\u00f3bal de Moura", "district": "Sant Mart\u00ed", "created": "2005-10-13T14:24:00Z", "cats": ["Punt verd m\u00f2bil", "Medi ambient"], "address": "C Crist\u00f3bal de Moura 227", "postalCode": "08019", "id": "99400145147"}}, {"geometry": {"type": "Point", "coordinates": [2.1231764444444443, 41.40285697777777]}, "type": "Feature", "id": "99400155524", "properties": {"neighborhood": "Sarri\u00e0", "name": "Contenidor Roba Amiga * Monastir de Sant Pere de les Puelles", "district": "Sarri\u00e0-Sant Gervasi", "created": "2006-03-15T14:24:00Z", "cats": ["Punt de roba amiga", "Medi ambient"], "address": "C Angl\u00ed 55", "postalCode": "08017", "id": "99400155524"}}, {"geometry": {"type": "Point", "coordinates": [2.1666691666666664, 41.376685888888886]}, "type": "Feature", "id": "99400161240", "properties": {"neighborhood": "el Raval", "name": "Punt Verd de Barri - Folch i Torres", "district": "Ciutat Vella", "created": "2006-05-31T12:07:00Z", "cats": ["Punt verd de barri", "Medi ambient"], "address": "Pl Josep M Folch i Torres 1*LX bxs", "postalCode": "08001", "id": "99400161240"}}, {"geometry": {"type": "Point", "coordinates": [2.200912138888889, 41.39494804722222]}, "type": "Feature", "id": "99400167570", "properties": {"neighborhood": "el Poblenou", "name": "Dip\u00f2sit d'aig\u00fces pluvials *Taulat", "district": "Sant Mart\u00ed", "created": "2006-09-18T14:08:00Z", "cats": ["Dip\u00f2sits d'aig\u00fces pluvials", "Medi ambient"], "address": "C Taulat 1", "postalCode": "08005", "id": "99400167570"}}, {"geometry": {"type": "Point", "coordinates": [2.2010659444444447, 41.41578985555555]}, "type": "Feature", "id": "99400171807", "properties": {"neighborhood": "Sant Mart\u00ed de Proven\u00e7als", "name": "Punt Verd de Barri - Sant Mart\u00ed de Proven\u00e7als", "district": "Sant Mart\u00ed", "created": "2006-11-14T11:30:00Z", "cats": ["Punt verd de barri", "Medi ambient"], "address": "C Andrade 154", "postalCode": "08020", "id": "99400171807"}}, {"geometry": {"type": "Point", "coordinates": [2.182477472222222, 41.39515719166667]}, "type": "Feature", "id": "99400172226", "properties": {"neighborhood": "el Fort Pienc", "name": "Punt Verd de Barri - Fort Pienc", "district": "Eixample", "created": "2006-11-21T13:35:00Z", "cats": ["Punt verd de barri", "Medi ambient"], "address": "C Al\u00ed Bei 89", "postalCode": "08013", "id": "99400172226"}}, {"geometry": {"type": "Point", "coordinates": [2.2012279722222226, 41.41565981111111]}, "type": "Feature", "id": "99400176674", "properties": {"neighborhood": "Sant Mart\u00ed de Proven\u00e7als", "name": "Contenidor Roba Amiga *Punt Verd de Barri Sant Mart\u00ed de Proven\u00e7als - Andrade", "district": "Sant Mart\u00ed", "created": "2007-01-30T14:25:00Z", "cats": ["Punt de roba amiga", "Medi ambient"], "address": "C Andrade 150", "postalCode": "08020", "id": "99400176674"}}, {"geometry": {"type": "Point", "coordinates": [2.134021638888889, 41.37761722222222]}, "type": "Feature", "id": "99400182683", "properties": {"neighborhood": "Sants", "name": "Punt Verd M\u00f2bil *Joan G\u00fcell", "district": "Sants-Montju\u00efc", "created": "2007-05-08T10:02:00Z", "cats": ["Punt verd m\u00f2bil", "Medi ambient"], "address": "C Joan G\u00fcell 30", "postalCode": "08028", "id": "99400182683"}}, {"geometry": {"type": "Point", "coordinates": [2.128756, 41.37296406388889]}, "type": "Feature", "id": "99400182684", "properties": {"neighborhood": "Sants - Badal", "name": "Punt Verd M\u00f2bil *Pla\u00e7a Olivereta", "district": "Sants-Montju\u00efc", "created": "2007-05-08T10:04:00Z", "cats": ["Punt verd m\u00f2bil", "Medi ambient"], "address": "C Bacard\u00ed 33", "postalCode": "08028", "id": "99400182684"}}, {"geometry": {"type": "Point", "coordinates": [2.136146222222222, 41.37640143611111]}, "type": "Feature", "id": "99400182686", "properties": {"neighborhood": "Sants", "name": "Punt Verd M\u00f2bil *Passeig Sant Antoni-Galileu", "district": "Sants-Montju\u00efc", "created": "2007-05-08T10:06:00Z", "cats": ["Punt verd m\u00f2bil", "Medi ambient"], "address": "Pg Sant Antoni 1", "postalCode": "08014", "id": "99400182686"}}, {"geometry": {"type": "Point", "coordinates": [2.139722388888889, 41.36744890833334]}, "type": "Feature", "id": "99400182699", "properties": {"neighborhood": "la Marina de Port", "name": "Punt Verd M\u00f2bil *Pla\u00e7a Sara Bernhardt", "district": "Sants-Montju\u00efc", "created": "2007-05-08T11:39:00Z", "cats": ["Punt verd m\u00f2bil", "Medi ambient"], "address": "Pl Sarah Bernhardt 1", "postalCode": "08038", "id": "99400182699"}}, {"geometry": {"type": "Point", "coordinates": [2.1603579444444443, 41.37471278611111]}, "type": "Feature", "id": "99400182700", "properties": {"neighborhood": "el Poble-sec", "name": "Punt Verd M\u00f2bil *Avinguda Paral\u00b7lel-Jaume Fabra", "district": "Sants-Montju\u00efc", "created": "2007-05-08T11:41:00Z", "cats": ["Punt verd m\u00f2bil", "Medi ambient"], "address": "C Jaume Fabra 3", "postalCode": "08004", "id": "99400182700"}}, {"geometry": {"type": "Point", "coordinates": [2.130952111111111, 41.38443948888889]}, "type": "Feature", "id": "99400182701", "properties": {"neighborhood": "Les Corts", "name": "Punt Verd M\u00f2bil *Mercat de les Corts", "district": "Les Corts", "created": "2007-05-08T11:47:00Z", "cats": ["Punt verd m\u00f2bil", "Medi ambient"], "address": "Trav Corts 229", "postalCode": "08028", "id": "99400182701"}}, {"geometry": {"type": "Point", "coordinates": [2.1420168055555555, 41.39373020833333]}, "type": "Feature", "id": "99400182702", "properties": {"neighborhood": "Sant Gervasi - Galvany", "name": "Punt Verd M\u00f2bil *Tur\u00f3 Parc", "district": "Sarri\u00e0-Sant Gervasi", "created": "2007-05-08T11:49:00Z", "cats": ["Punt verd m\u00f2bil", "Medi ambient"], "address": "Av Pau Casals 17", "postalCode": "08021", "id": "99400182702"}}, {"geometry": {"type": "Point", "coordinates": [2.124256472222222, 41.394830641666665]}, "type": "Feature", "id": "99400182703", "properties": {"neighborhood": "Sarri\u00e0", "name": "Punt Verd M\u00f2bil *Jardins Can Senillosa-Fontcoberta", "district": "Sarri\u00e0-Sant Gervasi", "created": "2007-05-08T11:51:00Z", "cats": ["Punt verd m\u00f2bil", "Medi ambient"], "address": "C Fontcoberta 5", "postalCode": "08034", "id": "99400182703"}}, {"geometry": {"type": "Point", "coordinates": [2.1332291666666667, 41.401726591666666]}, "type": "Feature", "id": "99400182706", "properties": {"neighborhood": "Sant Gervasi - la Bonanova", "name": "Punt Verd M\u00f2bil *Jardins Ferran Casablancas", "district": "Sarri\u00e0-Sant Gervasi", "created": "2007-05-08T11:54:00Z", "cats": ["Punt verd m\u00f2bil", "Medi ambient"], "address": "C Cerignola 3", "postalCode": "08022", "id": "99400182706"}}, {"geometry": {"type": "Point", "coordinates": [2.1632321666666665, 41.40573019722222]}, "type": "Feature", "id": "99400182707", "properties": {"neighborhood": "el Camp d'en Grassot i Gr\u00e0cia Nova", "name": "Punt Verd M\u00f2bil *Escorial-Pi i Margall", "district": "Gr\u00e0cia", "created": "2007-05-08T11:56:00Z", "cats": ["Punt verd m\u00f2bil", "Medi ambient"], "address": "C Pi i Margall 6", "postalCode": "08025", "id": "99400182707"}}, {"geometry": {"type": "Point", "coordinates": [2.1670117777777778, 41.41512751111111]}, "type": "Feature", "id": "99400182708", "properties": {"neighborhood": "el Baix Guinard\u00f3", "name": "Punt Verd M\u00f2bil *Pla\u00e7a Font Castellana", "district": "Horta-Guinard\u00f3", "created": "2007-05-08T11:59:00Z", "cats": ["Punt verd m\u00f2bil", "Medi ambient"], "address": "Av Mare D\u00e9u de Montserrat 84*B", "postalCode": "08024", "id": "99400182708"}}, {"geometry": {"type": "Point", "coordinates": [2.163327944444444, 41.430827988888886]}, "type": "Feature", "id": "99400182710", "properties": {"neighborhood": "Horta", "name": "Punt Verd M\u00f2bil *Tajo-Cartell\u00e0", "district": "Horta-Guinard\u00f3", "created": "2007-05-08T12:02:00Z", "cats": ["Punt verd m\u00f2bil", "Medi ambient"], "address": "C Cartell\u00e0 192", "postalCode": "08031", "id": "99400182710"}}, {"geometry": {"type": "Point", "coordinates": [2.1365865833333335, 41.42712562222222]}, "type": "Feature", "id": "99400182712", "properties": {"neighborhood": "Sant Gen\u00eds dels Agudells", "name": "Punt Verd M\u00f2bil *Jardins Manuel Arnalot", "district": "Horta-Guinard\u00f3", "created": "2007-05-08T12:06:00Z", "cats": ["Punt verd m\u00f2bil", "Medi ambient"], "address": "Av Jord\u00e0 29", "postalCode": "08035", "id": "99400182712"}}, {"geometry": {"type": "Point", "coordinates": [2.179044111111111, 41.43502548611111]}, "type": "Feature", "id": "99400182713", "properties": {"neighborhood": "Porta", "name": "Punt Verd M\u00f2bil *Avinguda Rio de Janeiro - Pintor Alsamora", "district": "Nou Barris", "created": "2007-05-08T12:08:00Z", "cats": ["Punt verd m\u00f2bil", "Medi ambient"], "address": "C Pintor Alsamora 15", "postalCode": "08016", "id": "99400182713"}}, {"geometry": {"type": "Point", "coordinates": [2.168289722222222, 41.443427980555555]}, "type": "Feature", "id": "99400182714", "properties": {"neighborhood": "Canyelles", "name": "Punt Verd M\u00f2bil *Antonio Machado - Federico Garc\u00eda Lorca", "district": "Nou Barris", "created": "2007-05-08T12:10:00Z", "cats": ["Punt verd m\u00f2bil", "Medi ambient"], "address": "C Antonio Machado 16", "postalCode": "08042", "id": "99400182714"}}, {"geometry": {"type": "Point", "coordinates": [2.1876681666666666, 41.442152763888885]}, "type": "Feature", "id": "99400182715", "properties": {"neighborhood": "Sant Andreu", "name": "Punt Verd M\u00f2bil *Pla\u00e7a Moss\u00e8n Clap\u00e9s-Gran Sant Andreu", "district": "Sant Andreu", "created": "2007-05-08T12:12:00Z", "cats": ["Punt verd m\u00f2bil", "Medi ambient"], "address": "Pl Moss\u00e8n Clap\u00e9s 20", "postalCode": "08030", "id": "99400182715"}}, {"geometry": {"type": "Point", "coordinates": [2.1912458611111107, 41.43586388333333]}, "type": "Feature", "id": "99400182716", "properties": {"neighborhood": "Sant Andreu", "name": "Punt Verd M\u00f2bil *Pla\u00e7a Orfila", "district": "Sant Andreu", "created": "2007-05-08T12:13:00Z", "cats": ["Punt verd m\u00f2bil", "Medi ambient"], "address": "Pl Orfila 6", "postalCode": "08030", "id": "99400182716"}}, {"geometry": {"type": "Point", "coordinates": [2.1984076388888885, 41.438809825]}, "type": "Feature", "id": "99400182717", "properties": {"neighborhood": "el Bon Pastor", "name": "Punt Verd M\u00f2bil *Sao Paulo-Posoltega", "district": "Sant Andreu", "created": "2007-05-08T12:14:00Z", "cats": ["Punt verd m\u00f2bil", "Medi ambient"], "address": "C Sao Paulo 18", "postalCode": "08030", "id": "99400182717"}}, {"geometry": {"type": "Point", "coordinates": [2.204701555555556, 41.42179338611111]}, "type": "Feature", "id": "99400182718", "properties": {"neighborhood": "la Verneda i la Pau", "name": "Punt Verd M\u00f2bil *Rambla Prim-Guip\u00fascoa", "district": "Sant Mart\u00ed", "created": "2007-05-08T12:17:00Z", "cats": ["Punt verd m\u00f2bil", "Medi ambient"], "address": "Rbla Guip\u00fascoa 146", "postalCode": "08020", "id": "99400182718"}}, {"geometry": {"type": "Point", "coordinates": [2.2051225000000003, 41.41882323888888]}, "type": "Feature", "id": "99400182720", "properties": {"neighborhood": "la Verneda i la Pau", "name": "Punt Verd M\u00f2bil *Mercat Sant Mart\u00ed", "district": "Sant Mart\u00ed", "created": "2007-05-08T12:18:00Z", "cats": ["Punt verd m\u00f2bil", "Medi ambient"], "address": "C Andrade 222", "postalCode": "08020", "id": "99400182720"}}, {"geometry": {"type": "Point", "coordinates": [2.1876693888888887, 41.395201022222224]}, "type": "Feature", "id": "99400182721", "properties": {"neighborhood": "el Parc i la Llacuna del Poblenou", "name": "Punt Verd M\u00f2bil *Marina - Almog\u00e0vers", "district": "Sant Mart\u00ed", "created": "2007-05-08T12:20:00Z", "cats": ["Punt verd m\u00f2bil", "Medi ambient"], "address": "C Almog\u00e0vers 74", "postalCode": "08018", "id": "99400182721"}}, {"geometry": {"type": "Point", "coordinates": [2.125995666666667, 41.37993241111111]}, "type": "Feature", "id": "99400234223", "properties": {"neighborhood": "la Maternitat i Sant Ramon", "name": "Punt Verd de Barri - Barcard\u00ed", "district": "Les Corts", "created": "2009-10-21T14:37:00Z", "cats": ["Punt verd de barri", "Medi ambient"], "address": "Trav Corts 122", "postalCode": "08028", "id": "99400234223"}}, {"geometry": {"type": "Point", "coordinates": [2.1454975833333334, 41.38527153611111]}, "type": "Feature", "id": "99400234956", "properties": {"neighborhood": "la Nova Esquerra de l'Eixample", "name": "Punt Verd de Barri - Nova Esquerra de l'Eixample", "district": "Eixample", "created": "2009-10-29T12:32:00Z", "cats": ["Punt verd de barri", "Medi ambient"], "address": "C Rocafort 226", "postalCode": "08029", "id": "99400234956"}}, {"geometry": {"type": "Point", "coordinates": [2.157751861111111, 41.42755829722222]}, "type": "Feature", "id": "99400234963", "properties": {"neighborhood": "el Carmel", "name": "Punt Verd de Barri - Horta-Carmel", "district": "Horta-Guinard\u00f3", "created": "2009-10-29T13:32:00Z", "cats": ["Punt verd de barri", "Medi ambient"], "address": "C Dante Alighieri 77", "postalCode": "08032", "id": "99400234963"}}, {"geometry": {"type": "Point", "coordinates": [2.169362111111111, 41.43081348055555]}, "type": "Feature", "id": "99400234967", "properties": {"neighborhood": "el Tur\u00f3 de la Peira", "name": "Punt Verd de Barri - Tur\u00f3 de la Peira", "district": "Nou Barris", "created": "2009-10-29T14:26:00Z", "cats": ["Punt verd de barri", "Medi ambient"], "address": "Pg Peira 1", "postalCode": "08031", "id": "99400234967"}}, {"geometry": {"type": "Point", "coordinates": [2.1777943888888887, 41.46168736388889]}, "type": "Feature", "id": "99400237316", "properties": {"neighborhood": "Ciutat Meridiana", "name": "Punt Verd de Barri - Ciutat Meridiana", "district": "Nou Barris", "created": "2009-11-30T14:49:00Z", "cats": ["Punt verd de barri", "Medi ambient"], "address": "C Costabona 4*6", "postalCode": "08033", "id": "99400237316"}}, {"geometry": {"type": "Point", "coordinates": [2.180240583333333, 41.44740822777777]}, "type": "Feature", "id": "99400237319", "properties": {"neighborhood": "la Trinitat Nova", "name": "Punt Verd de Barri - Les Roquetes", "district": "Nou Barris", "cats": ["Punt verd de barri", "Medi ambient"], "address": "C Aiguablava 1", "postalCode": "08042", "id": "99400237319"}}, {"geometry": {"type": "Point", "coordinates": [2.1580143055555556, 41.429222108333335]}, "type": "Feature", "id": "99400241707", "properties": {"neighborhood": "Horta", "name": "Punt Verd M\u00f2bil *Passatge de Tossa-Lisboa", "district": "Horta-Guinard\u00f3", "created": "2010-02-22T13:18:00Z", "cats": ["Punt verd m\u00f2bil", "Medi ambient"], "address": "Ptge Tossa 18", "postalCode": "08032", "id": "99400241707"}}, {"geometry": {"type": "Point", "coordinates": [2.1660301944444442, 41.42460784722222]}, "type": "Feature", "id": "99400241720", "properties": {"neighborhood": "la Font d'en Fargues", "name": "Punt Verd M\u00f2bil *Pedrell", "district": "Horta-Guinard\u00f3", "created": "2010-02-22T14:29:00Z", "cats": ["Punt verd m\u00f2bil", "Medi ambient"], "address": "C Pedrell 58", "postalCode": "08032", "id": "99400241720"}}, {"geometry": {"type": "Point", "coordinates": [2.144740166666667, 41.41162903055555]}, "type": "Feature", "id": "99400243066", "properties": {"neighborhood": "Vallcarca i els Penitents", "name": "Punt Verd M\u00f2bil *Avinguda Rep\u00fablica Argentina", "district": "Gr\u00e0cia", "created": "2010-03-11T16:46:00Z", "cats": ["Punt verd m\u00f2bil", "Medi ambient"], "address": "Av Rep\u00fablica Argentina 110", "postalCode": "08023", "id": "99400243066"}}, {"geometry": {"type": "Point", "coordinates": [2.1589439444444443, 41.411856058333335]}, "type": "Feature", "id": "99400243067", "properties": {"neighborhood": "la Salut", "name": "Punt Verd M\u00f2bil *Travessera de Dalt-Alegre de Dalt", "district": "Gr\u00e0cia", "created": "2010-03-11T17:23:00Z", "cats": ["Punt verd m\u00f2bil", "Medi ambient"], "address": "Trav Dalt 124", "postalCode": "08024", "id": "99400243067"}}, {"geometry": {"type": "Point", "coordinates": [2.1948027777777774, 41.41490098333333]}, "type": "Feature", "id": "99400249638", "properties": {"neighborhood": "Sant Mart\u00ed de Proven\u00e7als", "name": "Punt Verd M\u00f2bil *Rambla Guip\u00fascoa-Bac de Roda", "district": "Sant Mart\u00ed", "created": "2010-06-23T13:17:00Z", "cats": ["Punt verd m\u00f2bil", "Medi ambient"], "address": "Rbla Guip\u00fascoa 29", "postalCode": "08020", "id": "99400249638"}}, {"geometry": {"type": "Point", "coordinates": [2.167784388888889, 41.401321175]}, "type": "Feature", "id": "99400249650", "properties": {"neighborhood": "el Camp d'en Grassot i Gr\u00e0cia Nova", "name": "Punt Verd M\u00f2bil *Passeig Sant Joan-Rossell\u00f3", "district": "Gr\u00e0cia", "created": "2010-06-23T14:03:00Z", "cats": ["Punt verd m\u00f2bil", "Medi ambient"], "address": "C Rossell\u00f3 339", "postalCode": "08037", "id": "99400249650"}}, {"geometry": {"type": "Point", "coordinates": [2.1838939166666664, 41.44845664444444]}, "type": "Feature", "id": "99400250001", "properties": {"neighborhood": "la Trinitat Nova", "name": "Punt Verd M\u00f2bil *Mercat Trinitat", "district": "Nou Barris", "created": "2010-06-30T11:37:00Z", "cats": ["Punt verd m\u00f2bil", "Medi ambient"], "address": "C Chafarinas 18", "postalCode": "08033", "id": "99400250001"}}, {"geometry": {"type": "Point", "coordinates": [2.1805973888888888, 41.460433836111115]}, "type": "Feature", "id": "99400250010", "properties": {"neighborhood": "Torre Bar\u00f3", "name": "Punt Verd M\u00f2bil *CAP Ciutat Meridiana - Sant Feliu Codines - Avinguda Vallbona", "district": "Nou Barris", "created": "2010-06-30T12:21:00Z", "cats": ["Punt verd m\u00f2bil", "Medi ambient"], "address": "C Sant Feliu de Codines 2", "postalCode": "08033", "id": "99400250010"}}, {"geometry": {"type": "Point", "coordinates": [2.1979387777777775, 41.410056149999996]}, "type": "Feature", "id": "99400250027", "properties": {"neighborhood": "Proven\u00e7als del Poblenou", "name": "Punt Verd M\u00f2bil *Pla\u00e7a Espronceda - Per\u00fa", "district": "Sant Mart\u00ed", "created": "2010-06-30T13:15:00Z", "cats": ["Punt verd m\u00f2bil", "Medi ambient"], "address": "C Per\u00fa 149", "postalCode": "08000", "id": "99400250027"}}, {"geometry": {"type": "Point", "coordinates": [2.1532245555555556, 41.38596146388889]}, "type": "Feature", "id": "99400257485", "properties": {"neighborhood": "la Nova Esquerra de l'Eixample", "name": "Dip\u00f2sit d'aig\u00fces pluvials *Urgell/Mallorca", "district": "Eixample", "created": "2010-10-14T13:17:00Z", "cats": ["Dip\u00f2sits d'aig\u00fces pluvials", "Medi ambient"], "address": "C Comte d'Urgell 131", "postalCode": "08036", "id": "99400257485"}}, {"geometry": {"type": "Point", "coordinates": [2.1667947777777776, 41.383883708333336]}, "type": "Feature", "id": "99400260245", "properties": {"neighborhood": "el Raval", "name": "Contenidor de Roba Amiga  *Pati Manning de l'Antiga Casa de la Caritat", "district": "Ciutat Vella", "created": "2010-11-26T14:29:00Z", "cats": ["Punt de roba amiga", "Medi ambient"], "address": "C Montalegre 7 2n", "postalCode": "08001", "id": "99400260245"}}, {"geometry": {"type": "Point", "coordinates": [2.1823758888888887, 41.37541928888889]}, "type": "Feature", "id": "99400260246", "properties": {"neighborhood": "el Barri G\u00f2tic", "name": "Contenidor de Roba Amiga *Centre Comercial Maremagnum", "district": "Ciutat Vella", "created": "2010-11-26T14:32:00Z", "cats": ["Punt de roba amiga", "Medi ambient"], "address": "Moll Espanya 5*6", "postalCode": "08039", "id": "99400260246"}}, {"geometry": {"type": "Point", "coordinates": [2.166987611111111, 41.37649225277778]}, "type": "Feature", "id": "99400260247", "properties": {"neighborhood": "el Raval", "name": "Contenidor Roba Amiga *Punt Verd de Barri Folch i Torres", "district": "Ciutat Vella", "created": "2010-11-26T14:37:00Z", "cats": ["Punt de roba amiga", "Medi ambient"], "address": "Pl Josep M Folch i Torres 1*LX", "postalCode": "08001", "id": "99400260247"}}, {"geometry": {"type": "Point", "coordinates": [2.1788814444444444, 41.38781918611111]}, "type": "Feature", "id": "99400260248", "properties": {"neighborhood": "Sant Pere, Santa Caterina i la Ribera", "name": "Contenidor de Roba Amiga *Punt Verd de Barri Col\u00b7laborador Can Basilio", "district": "Ciutat Vella", "created": "2010-11-26T14:43:00Z", "cats": ["Punt de roba amiga", "Medi ambient"], "address": "C Jaume Giralt 49", "postalCode": "08003", "id": "99400260248"}}, {"geometry": {"type": "Point", "coordinates": [2.152223916666667, 41.38590179444444]}, "type": "Feature", "id": "99400260250", "properties": {"neighborhood": "la Nova Esquerra de l'Eixample", "name": "Contenidor de Roba Amiga *Escola Aur\u00f3", "district": "Eixample", "created": "2010-11-26T14:58:00Z", "cats": ["Punt de roba amiga", "Medi ambient"], "address": "C Mallorca 106", "postalCode": "08029", "id": "99400260250"}}, {"geometry": {"type": "Point", "coordinates": [2.182741, 41.395134983333335]}, "type": "Feature", "id": "99400260305", "properties": {"neighborhood": "el Fort Pienc", "name": "Contenidor de Roba Amiga *Punt Verd Barri Fort Pienc", "district": "Eixample", "created": "2010-11-29T12:25:00Z", "cats": ["Punt de roba amiga", "Medi ambient"], "address": "C Al\u00ed Bei 89", "postalCode": "08013", "id": "99400260305"}}, {"geometry": {"type": "Point", "coordinates": [2.144838638888889, 41.38095234722222]}, "type": "Feature", "id": "99400260307", "properties": {"neighborhood": "la Nova Esquerra de l'Eixample", "name": "Contenidor de Roba Amiga *Jardins Safo", "district": "Eixample", "created": "2010-11-29T12:31:00Z", "cats": ["Punt de roba amiga", "Medi ambient"], "address": "Av Roma 20", "postalCode": "08015", "id": "99400260307"}}, {"geometry": {"type": "Point", "coordinates": [2.1635561944444444, 41.39643854166667]}, "type": "Feature", "id": "99400260312", "properties": {"neighborhood": "la Dreta de l'Eixample", "name": "Contenidor de Roba Amiga *Col\u00b7legi Merced", "district": "Eixample", "created": "2010-11-29T12:50:00Z", "cats": ["Punt de roba amiga", "Medi ambient"], "address": "C Proven\u00e7a 283", "postalCode": "08037", "id": "99400260312"}}, {"geometry": {"type": "Point", "coordinates": [2.1841765, 41.39619435833333]}, "type": "Feature", "id": "99400260322", "properties": {"neighborhood": "el Fort Pienc", "name": "Contenidor de Roba Amiga *Jardins Interior Illa Lina \u00d2dena", "district": "Eixample", "created": "2010-11-29T13:14:00Z", "cats": ["Punt de roba amiga", "Medi ambient"], "address": "C Al\u00ed Bei 121", "postalCode": "08013", "id": "99400260322"}}, {"geometry": {"type": "Point", "coordinates": [2.1543806388888886, 41.38175166388889]}, "type": "Feature", "id": "99400260326", "properties": {"neighborhood": "la Nova Esquerra de l'Eixample", "name": "Contenidor de Roba Amiga *Jardins Interior Illa Paula Montal", "district": "Eixample", "created": "2010-11-29T13:25:00Z", "cats": ["Punt de roba amiga", "Medi ambient"], "address": "C Viladomat 149", "postalCode": "08015", "id": "99400260326"}}, {"geometry": {"type": "Point", "coordinates": [2.167817555555555, 41.39476688888889]}, "type": "Feature", "id": "99400260331", "properties": {"neighborhood": "la Dreta de l'Eixample", "name": "Contenidor de Roba Amiga *Jardins Interior Illa Rector Oliveras", "district": "Eixample", "created": "2010-11-29T13:33:00Z", "cats": ["Punt de roba amiga", "Medi ambient"], "address": "Ptge Rector Oliveras 2", "postalCode": "08009", "id": "99400260331"}}, {"geometry": {"type": "Point", "coordinates": [2.155436638888889, 41.380100786111115]}, "type": "Feature", "id": "99400260336", "properties": {"neighborhood": "la Nova Esquerra de l'Eixample", "name": "Contenidor de Roba Amiga *Resid\u00e8ncia Francesc Layret", "district": "Eixample", "created": "2010-11-29T14:02:00Z", "cats": ["Punt de roba amiga", "Medi ambient"], "address": "G.V. Corts Catalanes 477", "postalCode": "08015", "id": "99400260336"}}, {"geometry": {"type": "Point", "coordinates": [2.166889972222222, 41.405458175]}, "type": "Feature", "id": "99400260337", "properties": {"neighborhood": "el Camp d'en Grassot i Gr\u00e0cia Nova", "name": "Contenidor de Roba Amiga *Jardins Interior Illa Sedeta", "district": "Gr\u00e0cia", "created": "2010-11-29T14:22:00Z", "cats": ["Punt de roba amiga", "Medi ambient"], "address": "C Sant Antoni Maria Claret 62", "postalCode": "08025", "id": "99400260337"}}, {"geometry": {"type": "Point", "coordinates": [2.1691136388888888, 41.404737958333335]}, "type": "Feature", "id": "99400260338", "properties": {"neighborhood": "el Camp d'en Grassot i Gr\u00e0cia Nova", "name": "Contenidor de Roba Amiga *Jardins Interior Illa Antoni Puigvert", "district": "Gr\u00e0cia", "created": "2010-11-29T14:27:00Z", "cats": ["Punt de roba amiga", "Medi ambient"], "address": "C Sic\u00edlia 287*LX", "postalCode": "08025", "id": "99400260338"}}, {"geometry": {"type": "Point", "coordinates": [2.172727222222222, 41.398866730555554]}, "type": "Feature", "id": "99400260340", "properties": {"neighborhood": "la Dreta de l'Eixample", "name": "Contenidor de Roba Amiga *Jardins Interior Illa Constan\u00e7a Arag\u00f3", "district": "Eixample", "created": "2010-11-29T14:40:00Z", "cats": ["Punt de roba amiga", "Medi ambient"], "address": "C Roger de Flor 194", "postalCode": "08013", "id": "99400260340"}}, {"geometry": {"type": "Point", "coordinates": [2.1559968055555556, 41.37909483333333]}, "type": "Feature", "id": "99400260347", "properties": {"neighborhood": "Sant Antoni", "name": "Contenidor de Roba Amiga *Jardins Interior Illa Maria Matilde Almendros", "district": "Eixample", "created": "2010-11-29T14:50:00Z", "cats": ["Punt de roba amiga", "Medi ambient"], "address": "C Cal\u00e0bria 90*92", "postalCode": "08015", "id": "99400260347"}}, {"geometry": {"type": "Point", "coordinates": [2.1866579444444443, 41.43953901388888]}, "type": "Feature", "id": "99400260415", "properties": {"neighborhood": "Sant Andreu", "name": "Punt Verd de Barri - Sant Andreu Nord", "district": "Sant Andreu", "created": "2010-11-30T12:14:00Z", "cats": ["Punt verd de barri", "Medi ambient"], "address": "Pl M Casablancas Joanico 4*LX", "postalCode": "08030", "id": "99400260415"}}, {"geometry": {"type": "Point", "coordinates": [2.1622943055555557, 41.398214358333334]}, "type": "Feature", "id": "99400260449", "properties": {"neighborhood": "la Dreta de l'Eixample", "name": "Contenidor de Roba Amiga *Jardins Interior Illa Carme Biada", "district": "Eixample", "created": "2010-11-30T14:43:00Z", "cats": ["Punt de roba amiga", "Medi ambient"], "address": "C Roger de Ll\u00faria 132", "postalCode": "08037", "id": "99400260449"}}, {"geometry": {"type": "Point", "coordinates": [2.157751861111111, 41.42755829722222]}, "type": "Feature", "id": "99400260670", "properties": {"neighborhood": "el Carmel", "name": "Contenidor de Roba Amiga *Punt Verd Barri Horta - Carmel", "district": "Horta-Guinard\u00f3", "created": "2010-12-02T15:02:00Z", "cats": ["Punt de roba amiga", "Medi ambient"], "address": "C Dante Alighieri 77", "postalCode": "08032", "id": "99400260670"}}, {"geometry": {"type": "Point", "coordinates": [2.1379918055555556, 41.385700344444444]}, "type": "Feature", "id": "99400262792", "properties": {"neighborhood": "Les Corts", "name": "Punt Verd de Barri - Les Corts", "district": "Les Corts", "created": "2011-01-11T12:08:00Z", "cats": ["Punt verd de barri", "Medi ambient"], "address": "C Nicaragua 101", "postalCode": "08029", "id": "99400262792"}}, {"geometry": {"type": "Point", "coordinates": [2.1663741944444443, 41.43499029722222]}, "type": "Feature", "id": "99400262801", "properties": {"neighborhood": "Can Peguera", "name": "Punt Verd M\u00f2bil *Darnius-Espinauga", "district": "Nou Barris", "created": "2011-01-11T13:07:00Z", "cats": ["Punt verd m\u00f2bil", "Medi ambient"], "address": "C Darnius 9", "postalCode": "08031", "id": "99400262801"}}, {"geometry": {"type": "Point", "coordinates": [2.142039722222222, 41.37155332222222]}, "type": "Feature", "id": "99400274262", "properties": {"neighborhood": "la Bordeta", "name": "Punt Verd de Barri - La Bordeta", "district": "Sants-Montju\u00efc", "cats": ["Punt verd de barri", "Medi ambient"], "address": "C Corral 2", "postalCode": "08014", "id": "99400274262"}}, {"geometry": {"type": "Point", "coordinates": [2.2042905000000004, 41.39553585]}, "type": "Feature", "id": "99400274395", "properties": {"neighborhood": "el Poblenou", "name": "Punt Verd de Barri - Poblenou", "district": "Sant Mart\u00ed", "created": "2011-07-13T12:11:00Z", "cats": ["Punt verd de barri", "Medi ambient"], "address": "C Carmen Amaya 10", "postalCode": "08005", "id": "99400274395"}}, {"geometry": {"type": "Point", "coordinates": [2.118715888888889, 41.42157912222222]}, "type": "Feature", "id": "99400286094", "properties": {"neighborhood": "Vallvidrera, el Tibidabo i les Planes", "name": "Contenidor de Sal *Pla\u00e7a Tibidabo", "district": "Sarri\u00e0-Sant Gervasi", "created": "2012-02-01T14:42:00Z", "cats": ["Contenidors de sal", "Medi ambient"], "address": "Pl Tibidabo 1", "postalCode": "08035", "id": "99400286094"}}, {"geometry": {"type": "Point", "coordinates": [2.1050005833333336, 41.41366043611111]}, "type": "Feature", "id": "99400286095", "properties": {"neighborhood": "Vallvidrera, el Tibidabo i les Planes", "name": "Contenidor de Sal *Escales Carrer Queralt", "district": "Sarri\u00e0-Sant Gervasi", "created": "2012-02-01T16:11:00Z", "cats": ["Contenidors de sal", "Medi ambient"], "address": "C Queralt 1", "postalCode": "08017", "id": "99400286095"}}, {"geometry": {"type": "Point", "coordinates": [2.105915, 41.41589631944444]}, "type": "Feature", "id": "99400286096", "properties": {"neighborhood": "Vallvidrera, el Tibidabo i les Planes", "name": "Contenidor de Sal *Navarro i Reverter - Manelic", "district": "Sarri\u00e0-Sant Gervasi", "created": "2012-02-01T16:19:00Z", "cats": ["Contenidors de sal", "Medi ambient"], "address": "C Navarro i Reverter 18*LB", "postalCode": "08017", "id": "99400286096"}}, {"geometry": {"type": "Point", "coordinates": [2.100231416666667, 41.41203667222222]}, "type": "Feature", "id": "99400286099", "properties": {"neighborhood": "Vallvidrera, el Tibidabo i les Planes", "name": "Contenidor de Sal *Espinagosa - Passatge Negociant", "district": "Sarri\u00e0-Sant Gervasi", "created": "2012-02-01T16:31:00Z", "cats": ["Contenidors de sal", "Medi ambient"], "address": "C Espinagosa 11", "postalCode": "08017", "id": "99400286099"}}, {"geometry": {"type": "Point", "coordinates": [2.1035904722222223, 41.41210061388889]}, "type": "Feature", "id": "99400286100", "properties": {"neighborhood": "Vallvidrera, el Tibidabo i les Planes", "name": "Contenidor de Sal *Mont d'Ors\u00e0 - Tur\u00f3", "district": "Sarri\u00e0-Sant Gervasi", "created": "2012-02-01T16:40:00Z", "cats": ["Contenidors de sal", "Medi ambient"], "address": "C Tur\u00f3 2", "postalCode": "08017", "id": "99400286100"}}, {"geometry": {"type": "Point", "coordinates": [2.095270166666667, 41.429367424999995]}, "type": "Feature", "id": "99400286101", "properties": {"neighborhood": "Vallvidrera, el Tibidabo i les Planes", "name": "Contenidor de Sal *Major de Rectoret - Marco Polo", "district": "Sarri\u00e0-Sant Gervasi", "created": "2012-02-01T17:09:00Z", "cats": ["Contenidors de sal", "Medi ambient"], "address": "C Marco Polo 32", "postalCode": "08017", "id": "99400286101"}}, {"geometry": {"type": "Point", "coordinates": [2.0937235833333334, 41.42516221666666]}, "type": "Feature", "id": "99400286102", "properties": {"neighborhood": "Vallvidrera, el Tibidabo i les Planes", "name": "Contenidor de Sal *Vesc - Margall\u00f3", "district": "Sarri\u00e0-Sant Gervasi", "created": "2012-02-01T17:53:00Z", "cats": ["Contenidors de sal", "Medi ambient"], "address": "C Margall\u00f3 2", "postalCode": "08017", "id": "99400286102"}}, {"geometry": {"type": "Point", "coordinates": [2.0994744444444446, 41.42819485833333]}, "type": "Feature", "id": "99400286104", "properties": {"neighborhood": "Vallvidrera, el Tibidabo i les Planes", "name": "Contenidor de Sal *Violer - Madame Buterfly", "district": "Sarri\u00e0-Sant Gervasi", "created": "2012-02-01T17:59:00Z", "cats": ["Contenidors de sal", "Medi ambient"], "address": "C Violer 10", "postalCode": "08017", "id": "99400286104"}}, {"geometry": {"type": "Point", "coordinates": [2.112134111111111, 41.41097420833333]}, "type": "Feature", "id": "99400286105", "properties": {"neighborhood": "Sarri\u00e0", "name": "Contenidor de Sal *Palafolls - Bosc", "district": "Sarri\u00e0-Sant Gervasi", "created": "2012-02-01T18:54:00Z", "cats": ["Contenidors de sal", "Medi ambient"], "address": "C Palafolls 1", "postalCode": "08017", "id": "99400286105"}}, {"geometry": {"type": "Point", "coordinates": [2.1138922222222223, 41.40944213333333]}, "type": "Feature", "id": "99400286106", "properties": {"neighborhood": "Sarri\u00e0", "name": "Contenidor de Sal *Palafolls", "district": "Sarri\u00e0-Sant Gervasi", "created": "2012-02-01T18:56:00Z", "cats": ["Contenidors de sal", "Medi ambient"], "address": "C Palafolls 28", "postalCode": "08017", "id": "99400286106"}}, {"geometry": {"type": "Point", "coordinates": [2.109767027777778, 41.41360880833333]}, "type": "Feature", "id": "99400286143", "properties": {"neighborhood": "Vallvidrera, el Tibidabo i les Planes", "name": "Contenidor de Sal *Cam\u00ed Bosc\u00e0", "district": "Sarri\u00e0-Sant Gervasi", "created": "2012-02-02T09:12:00Z", "cats": ["Contenidors de sal", "Medi ambient"], "address": "Cam\u00ed Bosc\u00e0 10", "postalCode": "08017", "id": "99400286143"}}, {"geometry": {"type": "Point", "coordinates": [2.1120146944444445, 41.413355949999996]}, "type": "Feature", "id": "99400286145", "properties": {"neighborhood": "Vallvidrera, el Tibidabo i les Planes", "name": "Contenidor de Sal *Font del Mont", "district": "Sarri\u00e0-Sant Gervasi", "created": "2012-02-02T09:14:00Z", "cats": ["Contenidors de sal", "Medi ambient"], "address": "C Font del Mont 24", "postalCode": "08017", "id": "99400286145"}}, {"geometry": {"type": "Point", "coordinates": [2.1046226944444446, 41.40762011666666]}, "type": "Feature", "id": "99400286146", "properties": {"neighborhood": "Sarri\u00e0", "name": "Contenidor de Sal *Cam\u00ed de la G\u00edrgola", "district": "Sarri\u00e0-Sant Gervasi", "created": "2012-02-02T09:16:00Z", "cats": ["Contenidors de sal", "Medi ambient"], "address": "Cam\u00ed G\u00edrgola 9", "postalCode": "08017", "id": "99400286146"}}, {"geometry": {"type": "Point", "coordinates": [2.0894617222222225, 41.42367474444444]}, "type": "Feature", "id": "99400286147", "properties": {"neighborhood": "Vallvidrera, el Tibidabo i les Planes", "name": "Contenidor de Sal *Passeig Vimetera", "district": "Sarri\u00e0-Sant Gervasi", "created": "2012-02-02T09:20:00Z", "cats": ["Contenidors de sal", "Medi ambient"], "address": "Pg Vimetera 26", "postalCode": "08017", "id": "99400286147"}}, {"geometry": {"type": "Point", "coordinates": [2.087557388888889, 41.422607202777776]}, "type": "Feature", "id": "99400286148", "properties": {"neighborhood": "Vallvidrera, el Tibidabo i les Planes", "name": "Contenidor de Sal *Passeig Pi Forcat - Passeig Anna Rubies", "district": "Sarri\u00e0-Sant Gervasi", "created": "2012-02-02T09:26:00Z", "cats": ["Contenidors de sal", "Medi ambient"], "address": "Pg Anna R\u00fabies 1", "postalCode": "08017", "id": "99400286148"}}, {"geometry": {"type": "Point", "coordinates": [2.099528916666667, 41.41294208611111]}, "type": "Feature", "id": "99400286149", "properties": {"neighborhood": "Vallvidrera, el Tibidabo i les Planes", "name": "Contenidor de Sal *Pelfort - Fonolleda", "district": "Sarri\u00e0-Sant Gervasi", "created": "2012-02-02T09:42:00Z", "cats": ["Contenidors de sal", "Medi ambient"], "address": "C Fonolleda 19", "postalCode": "08017", "id": "99400286149"}}, {"geometry": {"type": "Point", "coordinates": [2.11174, 41.41473960277778]}, "type": "Feature", "id": "99400286151", "properties": {"neighborhood": "Vallvidrera, el Tibidabo i les Planes", "name": "Contenidor de Sal *Torrent Font Mont", "district": "Sarri\u00e0-Sant Gervasi", "created": "2012-02-02T09:46:00Z", "cats": ["Contenidors de sal", "Medi ambient"], "address": "T Font del Mont 11", "postalCode": "08017", "id": "99400286151"}}, {"geometry": {"type": "Point", "coordinates": [2.095538972222222, 41.42411930833333]}, "type": "Feature", "id": "99400286153", "properties": {"neighborhood": "Vallvidrera, el Tibidabo i les Planes", "name": "Contenidor de Sal *Bohemis", "district": "Sarri\u00e0-Sant Gervasi", "created": "2012-02-02T09:49:00Z", "cats": ["Contenidors de sal", "Medi ambient"], "address": "C Bohemis 34", "postalCode": "08017", "id": "99400286153"}}, {"geometry": {"type": "Point", "coordinates": [2.0991303888888893, 41.42550563333333]}, "type": "Feature", "id": "99400286155", "properties": {"neighborhood": "Vallvidrera, el Tibidabo i les Planes", "name": "Contenidor de Sal *Gard\u00e8nia", "district": "Sarri\u00e0-Sant Gervasi", "created": "2012-02-02T09:51:00Z", "cats": ["Contenidors de sal", "Medi ambient"], "address": "C Gard\u00e8nia 2", "postalCode": "08017", "id": "99400286155"}}, {"geometry": {"type": "Point", "coordinates": [2.102442972222222, 41.41991343611111]}, "type": "Feature", "id": "99400286157", "properties": {"neighborhood": "Vallvidrera, el Tibidabo i les Planes", "name": "Contenidor de Sal *Escola Els Xiprers", "district": "Sarri\u00e0-Sant Gervasi", "created": "2012-02-02T09:54:00Z", "cats": ["Contenidors de sal", "Medi ambient"], "address": "Cam\u00ed Salze 13", "postalCode": "08017", "id": "99400286157"}}, {"geometry": {"type": "Point", "coordinates": [2.1531342777777778, 41.42630093333333]}, "type": "Feature", "id": "99400286160", "properties": {"neighborhood": "el Carmel", "name": "Contenidor de Sal *Escola Taxonera", "district": "Horta-Guinard\u00f3", "created": "2012-02-02T10:10:00Z", "cats": ["Contenidors de sal", "Medi ambient"], "address": "C Farn\u00e9s 60", "postalCode": "08032", "id": "99400286160"}}, {"geometry": {"type": "Point", "coordinates": [2.1434320277777776, 41.428019194444445]}, "type": "Feature", "id": "99400286161", "properties": {"neighborhood": "Montbau", "name": "Contenidor de Sal *Hospital Vall d'Hebron", "district": "Horta-Guinard\u00f3", "created": "2012-02-02T10:15:00Z", "cats": ["Contenidors de sal", "Medi ambient"], "address": "Pg Vall d'Hebron 119", "postalCode": "08035", "id": "99400286161"}}, {"geometry": {"type": "Point", "coordinates": [2.1790643055555554, 41.45760339444445]}, "type": "Feature", "id": "99400286163", "properties": {"neighborhood": "Torre Bar\u00f3", "name": "Contenidor de Sal *Associaci\u00f3 Ve\u00efns Torre Bar\u00f3", "district": "Nou Barris", "created": "2012-02-02T10:40:00Z", "cats": ["Contenidors de sal", "Medi ambient"], "address": "Av Escolapi C\u00e0ncer 39", "postalCode": "08033", "id": "99400286163"}}, {"geometry": {"type": "Point", "coordinates": [2.1695203055555554, 41.46010225277778]}, "type": "Feature", "id": "99400286164", "properties": {"neighborhood": "Ciutat Meridiana", "name": "Contenidor de Sal *Escola Sant Joan de la Creu", "district": "Nou Barris", "created": "2012-02-02T10:43:00Z", "cats": ["Contenidors de sal", "Medi ambient"], "address": "Av Rasos de Peguera 232", "postalCode": "08033", "id": "99400286164"}}, {"geometry": {"type": "Point", "coordinates": [2.179073388888889, 41.46109963333333]}, "type": "Feature", "id": "99400286165", "properties": {"neighborhood": "Ciutat Meridiana", "name": "Contenidor de Sal *Vallcivera", "district": "Nou Barris", "created": "2012-02-02T10:46:00Z", "cats": ["Contenidors de sal", "Medi ambient"], "address": "C Vallcivera 12", "postalCode": "08033", "id": "99400286165"}}, {"geometry": {"type": "Point", "coordinates": [2.0978730277777777, 41.41913775555555]}, "type": "Feature", "id": "99400286169", "properties": {"neighborhood": "Vallvidrera, el Tibidabo i les Planes", "name": "Contenidor de Sal *Zona de Vianants entre l'Estaci\u00f3  de FCG i el Centre C\u00edvic l'El\u00e8ctric", "district": "Sarri\u00e0-Sant Gervasi", "created": "2012-02-02T12:00:00Z", "cats": ["Contenidors de sal", "Medi ambient"], "address": "Ctra Vallvidrera Planes 6.5", "postalCode": "08017", "id": "99400286169"}}, {"geometry": {"type": "Point", "coordinates": [2.099638166666667, 41.42983768055555]}, "type": "Feature", "id": "99400286171", "properties": {"neighborhood": "Vallvidrera, el Tibidabo i les Planes", "name": "Contenidor de Sal *Nebuloses", "district": "Sarri\u00e0-Sant Gervasi", "created": "2012-02-02T12:06:00Z", "cats": ["Contenidors de sal", "Medi ambient"], "address": "C Nebuloses 13", "postalCode": "08017", "id": "99400286171"}}, {"geometry": {"type": "Point", "coordinates": [2.092058277777778, 41.42774083333333]}, "type": "Feature", "id": "99400286173", "properties": {"neighborhood": "Vallvidrera, el Tibidabo i les Planes", "name": "Contenidor de Sal *Pla\u00e7a Major del Rectoret - Escales Parsifal", "district": "Sarri\u00e0-Sant Gervasi", "created": "2012-02-02T12:14:00Z", "cats": ["Contenidors de sal", "Medi ambient"], "address": "Pl Major del Rectoret 1", "postalCode": "08017", "id": "99400286173"}}, {"geometry": {"type": "Point", "coordinates": [2.1073885555555556, 41.408262125]}, "type": "Feature", "id": "99400286174", "properties": {"neighborhood": "Sarri\u00e0", "name": "Contenidor de Sal *Carro\u00e7 - Pau Feu", "district": "Sarri\u00e0-Sant Gervasi", "created": "2012-02-02T12:28:00Z", "cats": ["Contenidors de sal", "Medi ambient"], "address": "C Carro\u00e7 20", "postalCode": "08017", "id": "99400286174"}}, {"geometry": {"type": "Point", "coordinates": [2.1058364166666665, 41.408356919444444]}, "type": "Feature", "id": "99400286175", "properties": {"neighborhood": "Sarri\u00e0", "name": "Contenidor de Sal *Carro\u00e7 - Comandant Llan\u00e7\u00e0", "district": "Sarri\u00e0-Sant Gervasi", "created": "2012-02-02T12:33:00Z", "cats": ["Contenidors de sal", "Medi ambient"], "address": "C Comandant Llan\u00e7a 2", "postalCode": "08017", "id": "99400286175"}}, {"geometry": {"type": "Point", "coordinates": [2.1049440833333333, 41.40861611388889]}, "type": "Feature", "id": "99400286179", "properties": {"neighborhood": "Sarri\u00e0", "name": "Contenidor de Sal *Carro\u00e7 - Carretera de les Aig\u00fces", "district": "Sarri\u00e0-Sant Gervasi", "created": "2012-02-02T13:00:00Z", "cats": ["Contenidors de sal", "Medi ambient"], "address": "C Carro\u00e7 63", "postalCode": "08017", "id": "99400286179"}}, {"geometry": {"type": "Point", "coordinates": [2.0872924444444445, 41.421448166666664]}, "type": "Feature", "id": "99400286181", "properties": {"neighborhood": "Vallvidrera, el Tibidabo i les Planes", "name": "Contenidor de Sal *Azalea - Passatge Gr\u00e8vol", "district": "Sarri\u00e0-Sant Gervasi", "created": "2012-02-02T13:16:00Z", "cats": ["Contenidors de sal", "Medi ambient"], "address": "Ptge Gr\u00e8vol 10", "postalCode": "08017", "id": "99400286181"}}, {"geometry": {"type": "Point", "coordinates": [2.081861361111111, 41.42050211388889]}, "type": "Feature", "id": "99400286182", "properties": {"neighborhood": "Vallvidrera, el Tibidabo i les Planes", "name": "Contenidor de Sal *Cam\u00ed Can Balasch - Cam\u00ed de Can Fortuny", "district": "Sarri\u00e0-Sant Gervasi", "created": "2012-02-02T13:27:00Z", "cats": ["Contenidors de sal", "Medi ambient"], "address": "Cam\u00ed Can Balasch 2", "postalCode": "08017", "id": "99400286182"}}, {"geometry": {"type": "Point", "coordinates": [2.10679275, 41.412559030555556]}, "type": "Feature", "id": "99400286188", "properties": {"neighborhood": "Vallvidrera, el Tibidabo i les Planes", "name": "Contenidor de Sal *Ja Hi Som", "district": "Sarri\u00e0-Sant Gervasi", "created": "2012-02-02T16:27:00Z", "cats": ["Contenidors de sal", "Medi ambient"], "address": "Drec Vallvidrera 40", "postalCode": "08017", "id": "99400286188"}}, {"geometry": {"type": "Point", "coordinates": [2.10277875, 41.415085319444444]}, "type": "Feature", "id": "99400286189", "properties": {"neighborhood": "Vallvidrera, el Tibidabo i les Planes", "name": "Contenidor de Sal *Reis Cat\u00f2lics", "district": "Sarri\u00e0-Sant Gervasi", "created": "2012-02-02T16:33:00Z", "cats": ["Contenidors de sal", "Medi ambient"], "address": "C Reis Cat\u00f2lics 16", "postalCode": "08000", "id": "99400286189"}}, {"geometry": {"type": "Point", "coordinates": [2.0966683611111114, 41.41835733611111]}, "type": "Feature", "id": "99400286202", "properties": {"neighborhood": "Vallvidrera, el Tibidabo i les Planes", "name": "Contenidor de Sal *Cam\u00ed de la Font dels Pins (baix de Mas Saur\u00f3)", "district": "Sarri\u00e0-Sant Gervasi", "created": "2012-02-02T16:49:00Z", "cats": ["Contenidors de sal", "Medi ambient"], "address": "Cam\u00ed Font dels Pins 16", "postalCode": "08017", "id": "99400286202"}}, {"geometry": {"type": "Point", "coordinates": [2.086752611111111, 41.420408155555556]}, "type": "Feature", "id": "99400286204", "properties": {"neighborhood": "Vallvidrera, el Tibidabo i les Planes", "name": "Contenidor de Sal *Azalea - Mas Guimbau", "district": "Sarri\u00e0-Sant Gervasi", "created": "2012-02-02T16:54:00Z", "cats": ["Contenidors de sal", "Medi ambient"], "address": "C Azalea 32", "postalCode": "08017", "id": "99400286204"}}, {"geometry": {"type": "Point", "coordinates": [2.105547777777778, 41.411871363888885]}, "type": "Feature", "id": "99400286207", "properties": {"neighborhood": "Vallvidrera, el Tibidabo i les Planes", "name": "Contenidor de Sal *Torre de Sant Salvador", "district": "Sarri\u00e0-Sant Gervasi", "created": "2012-02-02T17:07:00Z", "cats": ["Contenidors de sal", "Medi ambient"], "address": "Cam\u00ed Torre de Sansalvador 9", "postalCode": "08017", "id": "99400286207"}}, {"geometry": {"type": "Point", "coordinates": [2.169362111111111, 41.43081348055555]}, "type": "Feature", "id": "99400301999", "properties": {"neighborhood": "el Tur\u00f3 de la Peira", "name": "Contenidor Roba Amiga *Punt Verd de Barri Tur\u00f3 de la Peira", "district": "Nou Barris", "created": "2012-10-01T14:33:00Z", "cats": ["Punt de roba amiga", "Medi ambient"], "address": "Pg Peira 1", "postalCode": "08031", "id": "99400301999"}}, {"geometry": {"type": "Point", "coordinates": [2.1379918055555556, 41.385700344444444]}, "type": "Feature", "id": "99400302001", "properties": {"neighborhood": "Les Corts", "name": "Contenidor Roba Amiga *Punt Verd de Barri Les Corts", "district": "Les Corts", "created": "2012-10-01T14:38:00Z", "cats": ["Punt de roba amiga", "Medi ambient"], "address": "C Nicaragua 101", "postalCode": "08029", "id": "99400302001"}}, {"geometry": {"type": "Point", "coordinates": [2.186625361111111, 41.43955245555555]}, "type": "Feature", "id": "99400302004", "properties": {"neighborhood": "Sant Andreu", "name": "Contenidor Roba Amiga *Punt Verd de Barri Sant Andreu Nord", "district": "Sant Andreu", "created": "2012-10-01T14:41:00Z", "cats": ["Punt de roba amiga", "Medi ambient"], "address": "Pl M Casablancas Joanico 4*LX", "postalCode": "08030", "id": "99400302004"}}, {"geometry": {"type": "Point", "coordinates": [2.125995666666667, 41.37993241111111]}, "type": "Feature", "id": "99400302006", "properties": {"neighborhood": "la Maternitat i Sant Ramon", "name": "Contenidor Roba Amiga *Punt Verd de Barri Bacard\u00ed", "district": "Les Corts", "created": "2012-10-01T14:44:00Z", "cats": ["Punt de roba amiga", "Medi ambient"], "address": "Trav Corts 122", "postalCode": "08028", "id": "99400302006"}}, {"geometry": {"type": "Point", "coordinates": [2.1777943888888887, 41.46168736388889]}, "type": "Feature", "id": "99400302008", "properties": {"neighborhood": "Ciutat Meridiana", "name": "Contenidor Roba Amiga *Punt Verd de Barri Ciutat Meridiana", "district": "Nou Barris", "created": "2012-10-01T14:46:00Z", "cats": ["Punt de roba amiga", "Medi ambient"], "address": "C Costabona 4*6", "postalCode": "08033", "id": "99400302008"}}, {"geometry": {"type": "Point", "coordinates": [2.142039722222222, 41.37155332222222]}, "type": "Feature", "id": "99400302009", "properties": {"neighborhood": "la Bordeta", "name": "Contenidor Roba Amiga *Punt Verd de Barri La Bordeta", "district": "Sants-Montju\u00efc", "created": "2012-10-01T14:50:00Z", "cats": ["Punt de roba amiga", "Medi ambient"], "address": "C Corral 2", "postalCode": "08014", "id": "99400302009"}}, {"geometry": {"type": "Point", "coordinates": [2.180240583333333, 41.44740822777777]}, "type": "Feature", "id": "99400302010", "properties": {"neighborhood": "la Trinitat Nova", "name": "Contenidor Roba Amiga *Punt Verd de Barri Les Roquetes", "district": "Nou Barris", "created": "2012-10-01T14:52:00Z", "cats": ["Punt de roba amiga", "Medi ambient"], "address": "C Aiguablava 1", "postalCode": "08042", "id": "99400302010"}}, {"geometry": {"type": "Point", "coordinates": [2.1454975833333334, 41.38527153611111]}, "type": "Feature", "id": "99400302013", "properties": {"neighborhood": "la Nova Esquerra de l'Eixample", "name": "Contenidor Roba Amiga *Punt Verd de Barri Nova Esquerrra de l'Eixample", "district": "Eixample", "created": "2012-10-01T14:56:00Z", "cats": ["Punt de roba amiga", "Medi ambient"], "address": "C Rocafort 226", "postalCode": "08029", "id": "99400302013"}}, {"geometry": {"type": "Point", "coordinates": [2.2024280555555555, 41.39402733055555]}, "type": "Feature", "id": "99400302015", "properties": {"neighborhood": "el Poblenou", "name": "Contenidor Roba Amiga *Punt Verd de Barri Poblenou", "district": "Sant Mart\u00ed", "created": "2012-10-01T14:59:00Z", "cats": ["Punt de roba amiga", "Medi ambient"], "address": "C Carmen Amaya 2", "postalCode": "08005", "id": "99400302015"}}, {"geometry": {"type": "Point", "coordinates": [2.1917925277777774, 41.38170833888889]}, "type": "Feature", "id": "99400315466", "properties": {"neighborhood": "la Barceloneta", "name": "Punt Verd de Barri - Barceloneta", "district": "Ciutat Vella", "created": "2013-04-11T14:52:00Z", "cats": ["Punt verd de barri", "Medi ambient"], "address": "Pg Salvat Papasseit 3", "postalCode": "08003", "id": "99400315466"}}, {"geometry": {"type": "Point", "coordinates": [2.1545414166666665, 41.43202974722222]}, "type": "Feature", "id": "99400323050", "properties": {"neighborhood": "Horta", "name": "Dip\u00f2sit d'aig\u00fces pluvials *Parc de les Rieres d'Horta", "district": "Horta-Guinard\u00f3", "created": "2013-07-30T10:42:00Z", "cats": ["Dip\u00f2sits d'aig\u00fces pluvials", "Medi ambient"], "address": "C Jerez 14", "postalCode": "08032", "id": "99400323050"}}, {"geometry": {"type": "Point", "coordinates": [2.155341111111111, 41.39961618611111]}, "type": "Feature", "id": "99400334327", "properties": {"neighborhood": "la Vila de Gr\u00e0cia", "name": "Punt Verd M\u00f2bil *Travessera de Gr\u00e0cia-Gran de Gr\u00e0cia", "district": "Gr\u00e0cia", "created": "2014-01-15T14:06:00Z", "cats": ["Punt verd m\u00f2bil", "Medi ambient"], "address": "Trav Gr\u00e0cia 116", "postalCode": "08012", "id": "99400334327"}}]}